{
  "type": "FeatureCollection",
  "features": [
    {
      "type": "Feature",
      "properties": {
        "CityName": "宜蘭縣",
        "RegionName": "宜蘭市",
        "Address": "宜興橋南端(往羅東)+50m南下",
        "DeptNm": "宜蘭縣政府警察局",
        "BranchNm": "宜蘭分局",
        "direct": "北向南",
        "limit": "50"
      },
      "geometry": {
        "type": "Point",
        "coordinates": [
          121.759873,
          24.760711
        ]
      }
    },
    {
      "type": "Feature",
      "properties": {
        "CityName": "宜蘭縣",
        "RegionName": "宜蘭市",
        "Address": "中山路1段560號前北上",
        "DeptNm": "宜蘭縣政府警察局",
        "BranchNm": "宜蘭分局",
        "direct": "南向北",
        "limit": "60"
      },
      "geometry": {
        "type": "Point",
        "coordinates": [
          121.761045,
          24.738028
        ]
      }
    },
    {
      "type": "Feature",
      "properties": {
        "CityName": "宜蘭縣",
        "RegionName": "宜蘭市",
        "Address": "台9線79k+550m環市東路與192線路口北上",
        "DeptNm": "宜蘭縣政府警察局",
        "BranchNm": "宜蘭分局",
        "direct": "南向北",
        "limit": "70"
      },
      "geometry": {
        "type": "Point",
        "coordinates": [
          121.770743,
          24.767034
        ]
      }
    },
    {
      "type": "Feature",
      "properties": {
        "CityName": "宜蘭縣",
        "RegionName": "宜蘭市",
        "Address": "台9線80k+700m環市東路黎霧橋南端南下",
        "DeptNm": "宜蘭縣政府警察局",
        "BranchNm": "宜蘭分局",
        "direct": "北向南",
        "limit": "70"
      },
      "geometry": {
        "type": "Point",
        "coordinates": [
          121.771352,
          24.756818
        ]
      }
    },
    {
      "type": "Feature",
      "properties": {
        "CityName": "宜蘭縣",
        "RegionName": "宜蘭市",
        "Address": "台9線81k+650m環市東路北上",
        "DeptNm": "宜蘭縣政府警察局",
        "BranchNm": "宜蘭分局",
        "direct": "南向北",
        "limit": "70"
      },
      "geometry": {
        "type": "Point",
        "coordinates": [
          121.77159,
          24.748297
        ]
      }
    },
    {
      "type": "Feature",
      "properties": {
        "CityName": "宜蘭縣",
        "RegionName": "宜蘭市",
        "Address": "台9線82k+200m環市東路與宜14線路口南下",
        "DeptNm": "宜蘭縣政府警察局",
        "BranchNm": "宜蘭分局",
        "direct": "北向南",
        "limit": "70"
      },
      "geometry": {
        "type": "Point",
        "coordinates": [
          121.771682,
          24.743659
        ]
      }
    },
    {
      "type": "Feature",
      "properties": {
        "CityName": "宜蘭縣",
        "RegionName": "宜蘭市",
        "Address": "191甲線與宜14線路口北上",
        "DeptNm": "宜蘭縣政府警察局",
        "BranchNm": "宜蘭分局",
        "direct": "南向北",
        "limit": "60"
      },
      "geometry": {
        "type": "Point",
        "coordinates": [
          121.781764,
          24.744093
        ]
      }
    },
    {
      "type": "Feature",
      "properties": {
        "CityName": "宜蘭縣",
        "RegionName": "羅東鎮",
        "Address": "公正路324號西向",
        "DeptNm": "宜蘭縣政府警察局",
        "BranchNm": "羅東分局",
        "direct": "東向西",
        "limit": "40"
      },
      "geometry": {
        "type": "Point",
        "coordinates": [
          121.761418,
          24.680589
        ]
      }
    },
    {
      "type": "Feature",
      "properties": {
        "CityName": "宜蘭縣",
        "RegionName": "蘇澳鎮",
        "Address": "台9線131ｋ+700ｍ南澳段北上",
        "DeptNm": "宜蘭縣政府警察局",
        "BranchNm": "蘇澳分局",
        "direct": "南北雙向",
        "limit": "50"
      },
      "geometry": {
        "type": "Point",
        "coordinates": [
          121.793661,
          24.462545
        ]
      }
    },
    {
      "type": "Feature",
      "properties": {
        "CityName": "宜蘭縣",
        "RegionName": "蘇澳鎮",
        "Address": "台9線100k新城段北上",
        "DeptNm": "宜蘭縣政府警察局",
        "BranchNm": "蘇澳分局",
        "direct": "南北雙向",
        "limit": "60"
      },
      "geometry": {
        "type": "Point",
        "coordinates": [
          121.821268,
          24.615464
        ]
      }
    },
    {
      "type": "Feature",
      "properties": {
        "CityName": "宜蘭縣",
        "RegionName": "蘇澳鎮",
        "Address": "台9線124k+570m新澳隧道北上",
        "DeptNm": "宜蘭縣政府警察局",
        "BranchNm": "蘇澳分局",
        "direct": "南向北",
        "limit": "40"
      },
      "geometry": {
        "type": "Point",
        "coordinates": [
          121.830233,
          24.490236
        ]
      }
    },
    {
      "type": "Feature",
      "properties": {
        "CityName": "宜蘭縣",
        "RegionName": "蘇澳鎮",
        "Address": "台2線164k+390m港邊段南下",
        "DeptNm": "宜蘭縣政府警察局",
        "BranchNm": "蘇澳分局",
        "direct": "南北雙向",
        "limit": "70"
      },
      "geometry": {
        "type": "Point",
        "coordinates": [
          121.85278,
          24.611954
        ]
      }
    },
    {
      "type": "Feature",
      "properties": {
        "CityName": "宜蘭縣",
        "RegionName": "蘇澳鎮",
        "Address": "台2線167k+002m移山路北上",
        "DeptNm": "宜蘭縣政府警察局",
        "BranchNm": "蘇澳分局",
        "direct": "南北雙向",
        "limit": "60"
      },
      "geometry": {
        "type": "Point",
        "coordinates": [
          121.859499,
          24.590791
        ]
      }
    },
    {
      "type": "Feature",
      "properties": {
        "CityName": "宜蘭縣",
        "RegionName": "頭城鎮",
        "Address": "台9線69ｋ+20ｍ北宜路一段南下",
        "DeptNm": "宜蘭縣政府警察局",
        "BranchNm": "礁溪分局",
        "direct": "南北雙向",
        "limit": "60"
      },
      "geometry": {
        "type": "Point",
        "coordinates": [
          121.792649,
          24.845619
        ]
      }
    },
    {
      "type": "Feature",
      "properties": {
        "CityName": "宜蘭縣",
        "RegionName": "頭城鎮",
        "Address": "宜3線3k+850m宜三路南下",
        "DeptNm": "宜蘭縣政府警察局",
        "BranchNm": "礁溪分局",
        "direct": "南北雙向",
        "limit": "50"
      },
      "geometry": {
        "type": "Point",
        "coordinates": [
          121.796028,
          24.84921
        ]
      }
    },
    {
      "type": "Feature",
      "properties": {
        "CityName": "宜蘭縣",
        "RegionName": "頭城鎮",
        "Address": "191線2ｋ+50ｍ中崙段南下",
        "DeptNm": "宜蘭縣政府警察局",
        "BranchNm": "礁溪分局",
        "direct": "南北雙向",
        "limit": "60"
      },
      "geometry": {
        "type": "Point",
        "coordinates": [
          121.801373,
          24.828067
        ]
      }
    },
    {
      "type": "Feature",
      "properties": {
        "CityName": "宜蘭縣",
        "RegionName": "頭城鎮",
        "Address": "台2線139k+738ｍ竹安段南下",
        "DeptNm": "宜蘭縣政府警察局",
        "BranchNm": "礁溪分局",
        "direct": "南北雙向",
        "limit": "60"
      },
      "geometry": {
        "type": "Point",
        "coordinates": [
          121.820688,
          24.824111
        ]
      }
    },
    {
      "type": "Feature",
      "properties": {
        "CityName": "宜蘭縣",
        "RegionName": "頭城鎮",
        "Address": "台2線133k+769ｍ港口段南下",
        "DeptNm": "宜蘭縣政府警察局",
        "BranchNm": "礁溪分局",
        "direct": "南北雙向",
        "limit": "60"
      },
      "geometry": {
        "type": "Point",
        "coordinates": [
          121.835544,
          24.871765
        ]
      }
    },
    {
      "type": "Feature",
      "properties": {
        "CityName": "宜蘭縣",
        "RegionName": "頭城鎮",
        "Address": "台2線129k+309m梗枋國小南下",
        "DeptNm": "宜蘭縣政府警察局",
        "BranchNm": "礁溪分局",
        "direct": "南北雙向",
        "limit": "50"
      },
      "geometry": {
        "type": "Point",
        "coordinates": [
          121.863454,
          24.900975
        ]
      }
    },
    {
      "type": "Feature",
      "properties": {
        "CityName": "宜蘭縣",
        "RegionName": "頭城鎮",
        "Address": "台2線128k+754m梗枋段南下",
        "DeptNm": "宜蘭縣政府警察局",
        "BranchNm": "礁溪分局",
        "direct": "南北雙向",
        "limit": "60"
      },
      "geometry": {
        "type": "Point",
        "coordinates": [
          121.866727,
          24.903869
        ]
      }
    },
    {
      "type": "Feature",
      "properties": {
        "CityName": "宜蘭縣",
        "RegionName": "頭城鎮",
        "Address": "台2線123ｋ+642ｍ大溪段北上",
        "DeptNm": "宜蘭縣政府警察局",
        "BranchNm": "礁溪分局",
        "direct": "南北雙向",
        "limit": "50"
      },
      "geometry": {
        "type": "Point",
        "coordinates": [
          121.891277,
          24.939224
        ]
      }
    },
    {
      "type": "Feature",
      "properties": {
        "CityName": "宜蘭縣",
        "RegionName": "頭城鎮",
        "Address": "台2線126k+757m北關段北上",
        "DeptNm": "宜蘭縣政府警察局",
        "BranchNm": "礁溪分局",
        "direct": "南北雙向",
        "limit": "60"
      },
      "geometry": {
        "type": "Point",
        "coordinates": [
          121.897606,
          24.914801
        ]
      }
    },
    {
      "type": "Feature",
      "properties": {
        "CityName": "宜蘭縣",
        "RegionName": "頭城鎮",
        "Address": "台2線122k+634ｍ大溪段南下",
        "DeptNm": "宜蘭縣政府警察局",
        "BranchNm": "礁溪分局",
        "direct": "北向南",
        "limit": "60"
      },
      "geometry": {
        "type": "Point",
        "coordinates": [
          121.900106,
          24.941515
        ]
      }
    },
    {
      "type": "Feature",
      "properties": {
        "CityName": "宜蘭縣",
        "RegionName": "頭城鎮",
        "Address": "台2線120k+632ｍ蕃薯寮段南下",
        "DeptNm": "宜蘭縣政府警察局",
        "BranchNm": "礁溪分局",
        "direct": "南北雙向",
        "limit": "60"
      },
      "geometry": {
        "type": "Point",
        "coordinates": [
          121.914235,
          24.952927
        ]
      }
    },
    {
      "type": "Feature",
      "properties": {
        "CityName": "宜蘭縣",
        "RegionName": "頭城鎮",
        "Address": "台2線118k+49m大里段南下",
        "DeptNm": "宜蘭縣政府警察局",
        "BranchNm": "礁溪分局",
        "direct": "南北雙向",
        "limit": "50"
      },
      "geometry": {
        "type": "Point",
        "coordinates": [
          121.926086,
          24.970086
        ]
      }
    },
    {
      "type": "Feature",
      "properties": {
        "CityName": "宜蘭縣",
        "RegionName": "礁溪鄉",
        "Address": "191線6ｋ+600ｍ玉田段北上",
        "DeptNm": "宜蘭縣政府警察局",
        "BranchNm": "礁溪分局",
        "direct": "南北雙向",
        "limit": "60"
      },
      "geometry": {
        "type": "Point",
        "coordinates": [
          121.784228,
          24.789582
        ]
      }
    },
    {
      "type": "Feature",
      "properties": {
        "CityName": "宜蘭縣",
        "RegionName": "礁溪鄉",
        "Address": "礁溪鄉份尾三路北上(份尾橋南側100公尺處)",
        "DeptNm": "宜蘭縣政府警察局",
        "BranchNm": "礁溪分局",
        "direct": "南北雙向",
        "limit": "50"
      },
      "geometry": {
        "type": "Point",
        "coordinates": [
          121.787172,
          24.830685
        ]
      }
    },
    {
      "type": "Feature",
      "properties": {
        "CityName": "宜蘭縣",
        "RegionName": "壯圍鄉",
        "Address": "191甲線與雪隧路口南下",
        "DeptNm": "宜蘭縣政府警察局",
        "BranchNm": "礁溪分局",
        "direct": "北向南",
        "limit": "60"
      },
      "geometry": {
        "type": "Point",
        "coordinates": [
          121.778517,
          24.766776
        ]
      }
    },
    {
      "type": "Feature",
      "properties": {
        "CityName": "宜蘭縣",
        "RegionName": "壯圍鄉",
        "Address": "宜16線7k+500ｍ新南段西向",
        "DeptNm": "宜蘭縣政府警察局",
        "BranchNm": "礁溪分局",
        "direct": "東西雙向",
        "limit": "50"
      },
      "geometry": {
        "type": "Point",
        "coordinates": [
          121.783039,
          24.720304
        ]
      }
    },
    {
      "type": "Feature",
      "properties": {
        "CityName": "宜蘭縣",
        "RegionName": "壯圍鄉",
        "Address": "宜16線9ｋ+500ｍ美福段東向",
        "DeptNm": "宜蘭縣政府警察局",
        "BranchNm": "礁溪分局",
        "direct": "東西雙向",
        "limit": "50"
      },
      "geometry": {
        "type": "Point",
        "coordinates": [
          121.802651,
          24.719269
        ]
      }
    },
    {
      "type": "Feature",
      "properties": {
        "CityName": "宜蘭縣",
        "RegionName": "壯圍鄉",
        "Address": "宜20線1ｋ+150m新南段西向",
        "DeptNm": "宜蘭縣政府警察局",
        "BranchNm": "礁溪分局",
        "direct": "東西雙向",
        "limit": "60"
      },
      "geometry": {
        "type": "Point",
        "coordinates": [
          121.808557,
          24.727465
        ]
      }
    },
    {
      "type": "Feature",
      "properties": {
        "CityName": "宜蘭縣",
        "RegionName": "壯圍鄉",
        "Address": "台2線147ｋ+40ｍ過嶺國小南下",
        "DeptNm": "宜蘭縣政府警察局",
        "BranchNm": "礁溪分局",
        "direct": "南北雙向",
        "limit": "60"
      },
      "geometry": {
        "type": "Point",
        "coordinates": [
          121.815483,
          24.758748
        ]
      }
    },
    {
      "type": "Feature",
      "properties": {
        "CityName": "宜蘭縣",
        "RegionName": "壯圍鄉",
        "Address": "台2線142k+480ｍ大福段北上",
        "DeptNm": "宜蘭縣政府警察局",
        "BranchNm": "礁溪分局",
        "direct": "南北雙向",
        "limit": "60"
      },
      "geometry": {
        "type": "Point",
        "coordinates": [
          121.816581,
          24.79972
        ]
      }
    },
    {
      "type": "Feature",
      "properties": {
        "CityName": "宜蘭縣",
        "RegionName": "壯圍鄉",
        "Address": "台2線150ｋ+199m公館段南下",
        "DeptNm": "宜蘭縣政府警察局",
        "BranchNm": "礁溪分局",
        "direct": "南北雙向",
        "limit": "60"
      },
      "geometry": {
        "type": "Point",
        "coordinates": [
          121.819155,
          24.73036
        ]
      }
    },
    {
      "type": "Feature",
      "properties": {
        "CityName": "宜蘭縣",
        "RegionName": "員山鄉",
        "Address": "台7線113k+357ｍ內城段東向",
        "DeptNm": "宜蘭縣政府警察局",
        "BranchNm": "宜蘭分局",
        "direct": "東西雙向",
        "limit": "60"
      },
      "geometry": {
        "type": "Point",
        "coordinates": [
          121.700933,
          24.717842
        ]
      }
    },
    {
      "type": "Feature",
      "properties": {
        "CityName": "宜蘭縣",
        "RegionName": "員山鄉",
        "Address": "宜18-2線9ｋ深溝段西向",
        "DeptNm": "宜蘭縣政府警察局",
        "BranchNm": "宜蘭分局",
        "direct": "東西雙向",
        "limit": "60"
      },
      "geometry": {
        "type": "Point",
        "coordinates": [
          121.709622,
          24.707457
        ]
      }
    },
    {
      "type": "Feature",
      "properties": {
        "CityName": "宜蘭縣",
        "RegionName": "員山鄉",
        "Address": "台7線115k+865m八甲段西向",
        "DeptNm": "宜蘭縣政府警察局",
        "BranchNm": "宜蘭分局",
        "direct": "東西雙向",
        "limit": "60"
      },
      "geometry": {
        "type": "Point",
        "coordinates": [
          121.716391,
          24.732751
        ]
      }
    },
    {
      "type": "Feature",
      "properties": {
        "CityName": "宜蘭縣",
        "RegionName": "員山鄉",
        "Address": "宜61線900ｍ深溝段南下",
        "DeptNm": "宜蘭縣政府警察局",
        "BranchNm": "宜蘭分局",
        "direct": "南北雙向",
        "limit": "60"
      },
      "geometry": {
        "type": "Point",
        "coordinates": [
          121.717964,
          24.720016
        ]
      }
    },
    {
      "type": "Feature",
      "properties": {
        "CityName": "宜蘭縣",
        "RegionName": "員山鄉",
        "Address": "宜61線1ｋ+200ｍ深溝段北上",
        "DeptNm": "宜蘭縣政府警察局",
        "BranchNm": "宜蘭分局",
        "direct": "南北雙向",
        "limit": "60"
      },
      "geometry": {
        "type": "Point",
        "coordinates": [
          121.718649,
          24.71743
        ]
      }
    },
    {
      "type": "Feature",
      "properties": {
        "CityName": "宜蘭縣",
        "RegionName": "員山鄉",
        "Address": "宜18-2線溪洲路346號東向",
        "DeptNm": "宜蘭縣政府警察局",
        "BranchNm": "宜蘭分局",
        "direct": "東西雙向",
        "limit": "50"
      },
      "geometry": {
        "type": "Point",
        "coordinates": [
          121.738594,
          24.714243
        ]
      }
    },
    {
      "type": "Feature",
      "properties": {
        "CityName": "宜蘭縣",
        "RegionName": "員山鄉",
        "Address": "宜18-2線溪洲路150號西向",
        "DeptNm": "宜蘭縣政府警察局",
        "BranchNm": "宜蘭分局",
        "direct": "東西雙向",
        "limit": "50"
      },
      "geometry": {
        "type": "Point",
        "coordinates": [
          121.748119,
          24.719
        ]
      }
    },
    {
      "type": "Feature",
      "properties": {
        "CityName": "宜蘭縣",
        "RegionName": "冬山鄉",
        "Address": "台9線94k+450ｍ冬山段南下",
        "DeptNm": "宜蘭縣政府警察局",
        "BranchNm": "羅東分局",
        "direct": "北向南",
        "limit": "60"
      },
      "geometry": {
        "type": "Point",
        "coordinates": [
          121.785569,
          24.645604
        ]
      }
    },
    {
      "type": "Feature",
      "properties": {
        "CityName": "宜蘭縣",
        "RegionName": "五結鄉",
        "Address": "宜22線1k+400ｍ二結段東向",
        "DeptNm": "宜蘭縣政府警察局",
        "BranchNm": "羅東分局",
        "direct": "東西雙向",
        "limit": "60"
      },
      "geometry": {
        "type": "Point",
        "coordinates": [
          121.766192,
          24.710798
        ]
      }
    },
    {
      "type": "Feature",
      "properties": {
        "CityName": "宜蘭縣",
        "RegionName": "五結鄉",
        "Address": "台7丙線28k+75ｍ中山路東向",
        "DeptNm": "宜蘭縣政府警察局",
        "BranchNm": "羅東分局",
        "direct": "東西雙向",
        "limit": "60"
      },
      "geometry": {
        "type": "Point",
        "coordinates": [
          121.789493,
          24.672573
        ]
      }
    },
    {
      "type": "Feature",
      "properties": {
        "CityName": "宜蘭縣",
        "RegionName": "五結鄉",
        "Address": "191甲線與宜24線路口南下",
        "DeptNm": "宜蘭縣政府警察局",
        "BranchNm": "羅東分局",
        "direct": "北向南",
        "limit": "60"
      },
      "geometry": {
        "type": "Point",
        "coordinates": [
          121.791144,
          24.688986
        ]
      }
    },
    {
      "type": "Feature",
      "properties": {
        "CityName": "宜蘭縣",
        "RegionName": "五結鄉",
        "Address": "191甲線與196線路口北上",
        "DeptNm": "宜蘭縣政府警察局",
        "BranchNm": "羅東分局",
        "direct": "南向北",
        "limit": "60"
      },
      "geometry": {
        "type": "Point",
        "coordinates": [
          121.792581,
          24.683813
        ]
      }
    },
    {
      "type": "Feature",
      "properties": {
        "CityName": "宜蘭縣",
        "RegionName": "五結鄉",
        "Address": "五結鄉191甲線與傳藝路口南下",
        "DeptNm": "宜蘭縣政府警察局",
        "BranchNm": "羅東分局",
        "direct": "北向南",
        "limit": "60"
      },
      "geometry": {
        "type": "Point",
        "coordinates": [
          121.793192,
          24.680323
        ]
      }
    },
    {
      "type": "Feature",
      "properties": {
        "CityName": "宜蘭縣",
        "RegionName": "五結鄉",
        "Address": "五結鄉台七丙線29K+800M親河路西向",
        "DeptNm": "宜蘭縣政府警察局",
        "BranchNm": "羅東分局",
        "direct": "東西雙向",
        "limit": "60"
      },
      "geometry": {
        "type": "Point",
        "coordinates": [
          121.805192,
          24.673484
        ]
      }
    },
    {
      "type": "Feature",
      "properties": {
        "CityName": "宜蘭縣",
        "RegionName": "五結鄉",
        "Address": "宜22線6ｋ錦草段西向",
        "DeptNm": "宜蘭縣政府警察局",
        "BranchNm": "羅東分局",
        "direct": "東西雙向",
        "limit": "60"
      },
      "geometry": {
        "type": "Point",
        "coordinates": [
          121.810574,
          24.709386
        ]
      }
    },
    {
      "type": "Feature",
      "properties": {
        "CityName": "宜蘭縣",
        "RegionName": "五結鄉",
        "Address": "台2線157k+652m利澤段北上",
        "DeptNm": "宜蘭縣政府警察局",
        "BranchNm": "羅東分局",
        "direct": "南向北",
        "limit": "60"
      },
      "geometry": {
        "type": "Point",
        "coordinates": [
          121.828344,
          24.664686
        ]
      }
    },
    {
      "type": "Feature",
      "properties": {
        "CityName": "宜蘭縣",
        "RegionName": "三星鄉",
        "Address": "196線3ｋ+800ｍ萬富東向",
        "DeptNm": "宜蘭縣政府警察局",
        "BranchNm": "三星分局",
        "direct": "東西雙向",
        "limit": "60"
      },
      "geometry": {
        "type": "Point",
        "coordinates": [
          121.677256,
          24.677272
        ]
      }
    },
    {
      "type": "Feature",
      "properties": {
        "CityName": "宜蘭縣",
        "RegionName": "三星鄉",
        "Address": "台7丙線18ｋ+500ｍ大隱段東向",
        "DeptNm": "宜蘭縣政府警察局",
        "BranchNm": "三星分局",
        "direct": "東西雙向",
        "limit": "60"
      },
      "geometry": {
        "type": "Point",
        "coordinates": [
          121.697628,
          24.667261
        ]
      }
    },
    {
      "type": "Feature",
      "properties": {
        "CityName": "宜蘭縣",
        "RegionName": "三星鄉",
        "Address": "台7丙線20ｋ大隱段西向",
        "DeptNm": "宜蘭縣政府警察局",
        "BranchNm": "三星分局",
        "direct": "東西雙向",
        "limit": "60"
      },
      "geometry": {
        "type": "Point",
        "coordinates": [
          121.712174,
          24.670205
        ]
      }
    },
    {
      "type": "Feature",
      "properties": {
        "CityName": "宜蘭縣",
        "RegionName": "三星鄉",
        "Address": "196線7ｋ+900ｍ大義段西向",
        "DeptNm": "宜蘭縣政府警察局",
        "BranchNm": "三星分局",
        "direct": "東西雙向",
        "limit": "60"
      },
      "geometry": {
        "type": "Point",
        "coordinates": [
          121.718395,
          24.687069
        ]
      }
    },
    {
      "type": "Feature",
      "properties": {
        "CityName": "宜蘭縣",
        "RegionName": "三星鄉",
        "Address": "宜61線3ｋ+600ｍ大洲段南下",
        "DeptNm": "宜蘭縣政府警察局",
        "BranchNm": "三星分局",
        "direct": "北向南",
        "limit": "60"
      },
      "geometry": {
        "type": "Point",
        "coordinates": [
          121.727883,
          24.69807
        ]
      }
    },
    {
      "type": "Feature",
      "properties": {
        "CityName": "宜蘭縣",
        "RegionName": "三星鄉",
        "Address": "宜61線3ｋ+800ｍ大洲段北上",
        "DeptNm": "宜蘭縣政府警察局",
        "BranchNm": "三星分局",
        "direct": "南北雙向",
        "limit": "60"
      },
      "geometry": {
        "type": "Point",
        "coordinates": [
          121.728929,
          24.696065
        ]
      }
    },
    {
      "type": "Feature",
      "properties": {
        "CityName": "宜蘭縣",
        "RegionName": "三星鄉",
        "Address": "宜196線11ｋ大洲段東向",
        "DeptNm": "宜蘭縣政府警察局",
        "BranchNm": "三星分局",
        "direct": "東西雙向",
        "limit": "50"
      },
      "geometry": {
        "type": "Point",
        "coordinates": [
          121.742263,
          24.700823
        ]
      }
    },
    {
      "type": "Feature",
      "properties": {
        "CityName": "宜蘭縣",
        "RegionName": "南澳鄉",
        "Address": "台9線130ｋ+450ｍ南澳段南下",
        "DeptNm": "宜蘭縣政府警察局",
        "BranchNm": "蘇澳分局",
        "direct": "南北雙向",
        "limit": "50"
      },
      "geometry": {
        "type": "Point",
        "coordinates": [
          121.806452,
          24.467581
        ]
      }
    },
    {
      "type": "Feature",
      "properties": {
        "CityName": "新竹縣",
        "RegionName": "",
        "Address": "台1線54KM+900處",
        "DeptNm": "新竹縣政府警察局",
        "BranchNm": "竹北分局",
        "direct": "南北雙向",
        "limit": "70"
      },
      "geometry": {
        "type": "Point",
        "coordinates": [
          121.082694,
          24.886556
        ]
      }
    },
    {
      "type": "Feature",
      "properties": {
        "CityName": "新竹縣",
        "RegionName": "竹北市",
        "Address": "中正西路118線3km+500處",
        "DeptNm": "新竹縣政府警察局",
        "BranchNm": "竹北分局",
        "direct": "東西雙向",
        "limit": "50"
      },
      "geometry": {
        "type": "Point",
        "coordinates": [
          120.971368,
          24.84157
        ]
      }
    },
    {
      "type": "Feature",
      "properties": {
        "CityName": "新竹縣",
        "RegionName": "竹北市",
        "Address": "中華路1432號前(台1線65.5公里)南向",
        "DeptNm": "新竹縣政府警察局",
        "BranchNm": "竹北分局",
        "direct": "南北雙向",
        "limit": "60"
      },
      "geometry": {
        "type": "Point",
        "coordinates": [
          120.991525,
          24.863388
        ]
      }
    },
    {
      "type": "Feature",
      "properties": {
        "CityName": "新竹縣",
        "RegionName": "竹北市",
        "Address": "西濱公路與埔和路口(台15線64.4公里)南向",
        "DeptNm": "新竹縣政府警察局",
        "BranchNm": "竹北分局",
        "direct": "北向南",
        "limit": "60"
      },
      "geometry": {
        "type": "Point",
        "coordinates": [
          120.996062,
          24.931687
        ]
      }
    },
    {
      "type": "Feature",
      "properties": {
        "CityName": "新竹縣",
        "RegionName": "竹北市",
        "Address": "中華路1號前(台1線71公里)",
        "DeptNm": "新竹縣政府警察局",
        "BranchNm": "竹北分局",
        "direct": "北向南",
        "limit": "60"
      },
      "geometry": {
        "type": "Point",
        "coordinates": [
          120.997606,
          24.826324
        ]
      }
    },
    {
      "type": "Feature",
      "properties": {
        "CityName": "新竹縣",
        "RegionName": "竹北市",
        "Address": "台一線大眉南下路口",
        "DeptNm": "新竹縣政府警察局",
        "BranchNm": "竹北分局",
        "direct": "北往南",
        "limit": "50"
      },
      "geometry": {
        "type": "Point",
        "coordinates": [
          121.002075,
          24.855176
        ]
      }
    },
    {
      "type": "Feature",
      "properties": {
        "CityName": "新竹縣",
        "RegionName": "竹北市",
        "Address": "中華路1138號前",
        "DeptNm": "新竹縣政府警察局",
        "BranchNm": "竹北分局",
        "direct": "南向北",
        "limit": "50"
      },
      "geometry": {
        "type": "Point",
        "coordinates": [
          121.002542,
          24.855086
        ]
      }
    },
    {
      "type": "Feature",
      "properties": {
        "CityName": "新竹縣",
        "RegionName": "竹北市",
        "Address": "東興路二段316號前(120線7.1公里)雙向",
        "DeptNm": "新竹縣政府警察局",
        "BranchNm": "竹北分局",
        "direct": "東西雙向",
        "limit": "60"
      },
      "geometry": {
        "type": "Point",
        "coordinates": [
          121.055011,
          24.797277
        ]
      }
    },
    {
      "type": "Feature",
      "properties": {
        "CityName": "新竹縣",
        "RegionName": "竹東鎮",
        "Address": "台三線北上91.2公里",
        "DeptNm": "新竹縣政府警察局",
        "BranchNm": "竹東分局",
        "direct": "南北雙向",
        "limit": "60"
      },
      "geometry": {
        "type": "Point",
        "coordinates": [
          120.98595,
          24.697053
        ]
      }
    },
    {
      "type": "Feature",
      "properties": {
        "CityName": "新竹縣",
        "RegionName": "竹東鎮",
        "Address": "中興路四段372號前(122線14公里)西向",
        "DeptNm": "新竹縣政府警察局",
        "BranchNm": "竹東分局",
        "direct": "東向西",
        "limit": "50"
      },
      "geometry": {
        "type": "Point",
        "coordinates": [
          121.029247,
          24.779506
        ]
      }
    },
    {
      "type": "Feature",
      "properties": {
        "CityName": "新竹縣",
        "RegionName": "竹東鎮",
        "Address": "台68線12.55公里(快速道路)西向",
        "DeptNm": "新竹縣政府警察局",
        "BranchNm": "竹東分局",
        "direct": "東向西",
        "limit": "90"
      },
      "geometry": {
        "type": "Point",
        "coordinates": [
          121.029683,
          24.797769
        ]
      }
    },
    {
      "type": "Feature",
      "properties": {
        "CityName": "新竹縣",
        "RegionName": "竹東鎮",
        "Address": "台68線12.85公里(快速道路)東向",
        "DeptNm": "新竹縣政府警察局",
        "BranchNm": "竹東分局",
        "direct": "西向東",
        "limit": "90"
      },
      "geometry": {
        "type": "Point",
        "coordinates": [
          121.033523,
          24.795455
        ]
      }
    },
    {
      "type": "Feature",
      "properties": {
        "CityName": "新竹縣",
        "RegionName": "竹東鎮",
        "Address": "中盛村路口(台3線86.5公里)南向",
        "DeptNm": "新竹縣政府警察局",
        "BranchNm": "竹東分局",
        "direct": "南北雙向",
        "limit": "60"
      },
      "geometry": {
        "type": "Point",
        "coordinates": [
          121.034716,
          24.697114
        ]
      }
    },
    {
      "type": "Feature",
      "properties": {
        "CityName": "新竹縣",
        "RegionName": "竹東鎮",
        "Address": "台3線中豐路老爺山莊路口",
        "DeptNm": "新竹縣政府警察局",
        "BranchNm": "竹東分局",
        "direct": "南向北",
        "limit": "50"
      },
      "geometry": {
        "type": "Point",
        "coordinates": [
          121.078282,
          24.723765
        ]
      }
    },
    {
      "type": "Feature",
      "properties": {
        "CityName": "新竹縣",
        "RegionName": "竹東鎮",
        "Address": "竹122線18KM+160(中興路一段94-2號)",
        "DeptNm": "新竹縣政府警察局",
        "BranchNm": "竹東分局",
        "direct": "東西雙向",
        "limit": "50"
      },
      "geometry": {
        "type": "Point",
        "coordinates": [
          121.08006,
          24.747807
        ]
      }
    },
    {
      "type": "Feature",
      "properties": {
        "CityName": "新竹縣",
        "RegionName": "新埔鎮",
        "Address": "文山路亞東段369號西向",
        "DeptNm": "新竹縣政府警察局",
        "BranchNm": "新埔分局",
        "direct": "東向西",
        "limit": "60"
      },
      "geometry": {
        "type": "Point",
        "coordinates": [
          121.057861,
          24.825338
        ]
      }
    },
    {
      "type": "Feature",
      "properties": {
        "CityName": "新竹縣",
        "RegionName": "新埔鎮",
        "Address": "新關路1046巷口東向",
        "DeptNm": "新竹縣政府警察局",
        "BranchNm": "新埔分局",
        "direct": "西往東",
        "limit": "60"
      },
      "geometry": {
        "type": "Point",
        "coordinates": [
          121.093886,
          24.822089
        ]
      }
    },
    {
      "type": "Feature",
      "properties": {
        "CityName": "新竹縣",
        "RegionName": "關西鎮",
        "Address": "石光里702號前(118線19.1公里)西向",
        "DeptNm": "新竹縣政府警察局",
        "BranchNm": "新埔分局",
        "direct": "東往西",
        "limit": "60"
      },
      "geometry": {
        "type": "Point",
        "coordinates": [
          121.115873,
          24.816027
        ]
      }
    },
    {
      "type": "Feature",
      "properties": {
        "CityName": "新竹縣",
        "RegionName": "關西鎮",
        "Address": "南新里新城9鄰1號(台3線62公里)北向",
        "DeptNm": "新竹縣政府警察局",
        "BranchNm": "新埔分局",
        "direct": "南往北",
        "limit": "50"
      },
      "geometry": {
        "type": "Point",
        "coordinates": [
          121.172971,
          24.765247
        ]
      }
    },
    {
      "type": "Feature",
      "properties": {
        "CityName": "新竹縣",
        "RegionName": "關西鎮",
        "Address": "190號東光陸橋(台3線60.6公里)南向",
        "DeptNm": "新竹縣政府警察局",
        "BranchNm": "新埔分局",
        "direct": "北向南",
        "limit": "50"
      },
      "geometry": {
        "type": "Point",
        "coordinates": [
          121.176171,
          24.775279
        ]
      }
    },
    {
      "type": "Feature",
      "properties": {
        "CityName": "新竹縣",
        "RegionName": "湖口鄉",
        "Address": "八德路一段35號前(台1線61公里)南向",
        "DeptNm": "新竹縣政府警察局",
        "BranchNm": "竹北分局",
        "direct": "北向南",
        "limit": "70"
      },
      "geometry": {
        "type": "Point",
        "coordinates": [
          121.023464,
          24.885187
        ]
      }
    },
    {
      "type": "Feature",
      "properties": {
        "CityName": "新竹縣",
        "RegionName": "湖口鄉",
        "Address": "台1線中山路口南向",
        "DeptNm": "新竹縣政府警察局",
        "BranchNm": "竹北分局",
        "direct": "北向南",
        "limit": "70"
      },
      "geometry": {
        "type": "Point",
        "coordinates": [
          121.036312,
          24.880437
        ]
      }
    },
    {
      "type": "Feature",
      "properties": {
        "CityName": "新竹縣",
        "RegionName": "新豐鄉",
        "Address": "竹北市西濱公路鳳鼻隧道南端入口",
        "DeptNm": "新竹縣政府警察局",
        "BranchNm": "竹北分局",
        "direct": "南向北",
        "limit": "70"
      },
      "geometry": {
        "type": "Point",
        "coordinates": [
          120.954366,
          24.876579
        ]
      }
    },
    {
      "type": "Feature",
      "properties": {
        "CityName": "新竹縣",
        "RegionName": "新豐鄉",
        "Address": "西濱公路一段鳳鼻隧道南端(台15線69公里)",
        "DeptNm": "新竹縣政府警察局",
        "BranchNm": "竹北分局",
        "direct": "北向南",
        "limit": "70"
      },
      "geometry": {
        "type": "Point",
        "coordinates": [
          120.95457,
          24.877854
        ]
      }
    },
    {
      "type": "Feature",
      "properties": {
        "CityName": "新竹縣",
        "RegionName": "新豐鄉",
        "Address": "台15線62公里南向",
        "DeptNm": "新竹縣政府警察局",
        "BranchNm": "竹北分局",
        "direct": "北向南",
        "limit": "60"
      },
      "geometry": {
        "type": "Point",
        "coordinates": [
          120.996919,
          24.932375
        ]
      }
    },
    {
      "type": "Feature",
      "properties": {
        "CityName": "新竹縣",
        "RegionName": "芎林鄉",
        "Address": "富林路三段、文德路口(120線10.4公里)東向",
        "DeptNm": "新竹縣政府警察局",
        "BranchNm": "橫山分局",
        "direct": "東向西",
        "limit": "60"
      },
      "geometry": {
        "type": "Point",
        "coordinates": [
          121.073884,
          24.774718
        ]
      }
    },
    {
      "type": "Feature",
      "properties": {
        "CityName": "新竹縣",
        "RegionName": "芎林鄉",
        "Address": "富林路二段竹林交流道(120線11.8公里)西向",
        "DeptNm": "新竹縣政府警察局",
        "BranchNm": "橫山分局",
        "direct": "東向西",
        "limit": "60"
      },
      "geometry": {
        "type": "Point",
        "coordinates": [
          121.08224,
          24.765706
        ]
      }
    },
    {
      "type": "Feature",
      "properties": {
        "CityName": "新竹縣",
        "RegionName": "橫山鄉",
        "Address": "中豐路一段、站前街口(台3線72.9公里)南向",
        "DeptNm": "新竹縣政府警察局",
        "BranchNm": "橫山分局",
        "direct": "南北雙向",
        "limit": "60"
      },
      "geometry": {
        "type": "Point",
        "coordinates": [
          121.116527,
          24.720446
        ]
      }
    },
    {
      "type": "Feature",
      "properties": {
        "CityName": "新竹縣",
        "RegionName": "寶山鄉",
        "Address": "雙林路一般竹47-1線4km處",
        "DeptNm": "新竹縣政府警察局",
        "BranchNm": "竹東分局",
        "direct": "南向北",
        "limit": "50"
      },
      "geometry": {
        "type": "Point",
        "coordinates": [
          120.958644,
          24.744226
        ]
      }
    },
    {
      "type": "Feature",
      "properties": {
        "CityName": "新竹縣",
        "RegionName": "寶山鄉",
        "Address": "雙園路2段(竹82線1公里)南向",
        "DeptNm": "新竹縣政府警察局",
        "BranchNm": "竹東分局",
        "direct": "北向南",
        "limit": "50"
      },
      "geometry": {
        "type": "Point",
        "coordinates": [
          120.996428,
          24.766848
        ]
      }
    },
    {
      "type": "Feature",
      "properties": {
        "CityName": "苗栗縣",
        "RegionName": "苗栗市",
        "Address": "新川里柑園5號前處",
        "DeptNm": "苗栗縣警察局",
        "BranchNm": "苗栗分局",
        "direct": "東向西",
        "limit": "60"
      },
      "geometry": {
        "type": "Point",
        "coordinates": [
          120.803745,
          24.578798
        ]
      }
    },
    {
      "type": "Feature",
      "properties": {
        "CityName": "苗栗縣",
        "RegionName": "苗栗市",
        "Address": "臺13線35.2公里處",
        "DeptNm": "苗栗縣警察局",
        "BranchNm": "苗栗分局",
        "direct": "南向北",
        "limit": "60"
      },
      "geometry": {
        "type": "Point",
        "coordinates": [
          120.80778,
          24.53583
        ]
      }
    },
    {
      "type": "Feature",
      "properties": {
        "CityName": "苗栗縣",
        "RegionName": "苗栗市",
        "Address": "臺13線30.3公里處(苗商後方)",
        "DeptNm": "苗栗縣警察局",
        "BranchNm": "苗栗分局",
        "direct": "南北雙向",
        "limit": "50"
      },
      "geometry": {
        "type": "Point",
        "coordinates": [
          120.813732,
          24.557383
        ]
      }
    },
    {
      "type": "Feature",
      "properties": {
        "CityName": "苗栗縣",
        "RegionName": "苗栗市",
        "Address": "臺13線31.1公里處(信義街口)",
        "DeptNm": "苗栗縣警察局",
        "BranchNm": "苗栗分局",
        "direct": "南向北",
        "limit": "50"
      },
      "geometry": {
        "type": "Point",
        "coordinates": [
          120.814031,
          24.55099
        ]
      }
    },
    {
      "type": "Feature",
      "properties": {
        "CityName": "苗栗縣",
        "RegionName": "苗栗市",
        "Address": "臺6線(經國路)14.5公里處",
        "DeptNm": "苗栗縣警察局",
        "BranchNm": "苗栗分局",
        "direct": "東西雙向",
        "limit": "70"
      },
      "geometry": {
        "type": "Point",
        "coordinates": [
          120.831317,
          24.551334
        ]
      }
    },
    {
      "type": "Feature",
      "properties": {
        "CityName": "苗栗縣",
        "RegionName": "苑裡鎮",
        "Address": "苑北里中山路與成功路口處",
        "DeptNm": "苗栗縣警察局",
        "BranchNm": "通霄分局",
        "direct": "北向南",
        "limit": "50"
      },
      "geometry": {
        "type": "Point",
        "coordinates": [
          120.65281,
          24.445635
        ]
      }
    },
    {
      "type": "Feature",
      "properties": {
        "CityName": "苗栗縣",
        "RegionName": "苑裡鎮",
        "Address": "140線8.1公里處",
        "DeptNm": "苗栗縣警察局",
        "BranchNm": "通霄分局",
        "direct": "西向東",
        "limit": "60"
      },
      "geometry": {
        "type": "Point",
        "coordinates": [
          120.677505,
          24.409826
        ]
      }
    },
    {
      "type": "Feature",
      "properties": {
        "CityName": "苗栗縣",
        "RegionName": "苑裡鎮",
        "Address": "140線與苗47之1線口處",
        "DeptNm": "苗栗縣警察局",
        "BranchNm": "通霄分局",
        "direct": "東向西",
        "limit": "50"
      },
      "geometry": {
        "type": "Point",
        "coordinates": [
          120.677505,
          24.409826
        ]
      }
    },
    {
      "type": "Feature",
      "properties": {
        "CityName": "苗栗縣",
        "RegionName": "苑裡鎮",
        "Address": "140線與121線口處",
        "DeptNm": "苗栗縣警察局",
        "BranchNm": "通霄分局",
        "direct": "東向西",
        "limit": "60"
      },
      "geometry": {
        "type": "Point",
        "coordinates": [
          120.698482,
          24.384112
        ]
      }
    },
    {
      "type": "Feature",
      "properties": {
        "CityName": "苗栗縣",
        "RegionName": "苑裡鎮",
        "Address": "臺1線140.8公里處(臨海路口)",
        "DeptNm": "苗栗縣警察局",
        "BranchNm": "通霄分局",
        "direct": "北向南",
        "limit": "60"
      },
      "geometry": {
        "type": "Point",
        "coordinates": [
          120.821427,
          24.560159
        ]
      }
    },
    {
      "type": "Feature",
      "properties": {
        "CityName": "苗栗縣",
        "RegionName": "通霄鎮",
        "Address": "臺1線124.1公里處(拱天宮前)",
        "DeptNm": "苗栗縣警察局",
        "BranchNm": "通霄分局",
        "direct": "北向南",
        "limit": "60"
      },
      "geometry": {
        "type": "Point",
        "coordinates": [
          120.678431,
          24.492468
        ]
      }
    },
    {
      "type": "Feature",
      "properties": {
        "CityName": "苗栗縣",
        "RegionName": "通霄鎮",
        "Address": "臺1線124.8公里處(啟新國中前)",
        "DeptNm": "苗栗縣警察局",
        "BranchNm": "通霄分局",
        "direct": "南向北",
        "limit": "60"
      },
      "geometry": {
        "type": "Point",
        "coordinates": [
          120.691696,
          24.516985
        ]
      }
    },
    {
      "type": "Feature",
      "properties": {
        "CityName": "苗栗縣",
        "RegionName": "通霄鎮",
        "Address": "臺1線137.2公里處(五福國小陸橋下)",
        "DeptNm": "苗栗縣警察局",
        "BranchNm": "通霄分局",
        "direct": "南向北",
        "limit": "60"
      },
      "geometry": {
        "type": "Point",
        "coordinates": [
          120.691696,
          24.516985
        ]
      }
    },
    {
      "type": "Feature",
      "properties": {
        "CityName": "苗栗縣",
        "RegionName": "通霄鎮",
        "Address": "128線2.4公里處",
        "DeptNm": "苗栗縣警察局",
        "BranchNm": "通霄分局",
        "direct": "東向西",
        "limit": "60"
      },
      "geometry": {
        "type": "Point",
        "coordinates": [
          120.723499,
          24.485028
        ]
      }
    },
    {
      "type": "Feature",
      "properties": {
        "CityName": "苗栗縣",
        "RegionName": "通霄鎮",
        "Address": "臺1線134.7公里與121線口處",
        "DeptNm": "苗栗縣警察局",
        "BranchNm": "通霄分局",
        "direct": "北向南",
        "limit": "60"
      },
      "geometry": {
        "type": "Point",
        "coordinates": [
          120.821427,
          24.560159
        ]
      }
    },
    {
      "type": "Feature",
      "properties": {
        "CityName": "苗栗縣",
        "RegionName": "竹南鎮",
        "Address": "臺61線91公里快(側)車道與博愛街口處",
        "DeptNm": "苗栗縣警察局",
        "BranchNm": "竹南分局",
        "direct": "南向北",
        "limit": "40"
      },
      "geometry": {
        "type": "Point",
        "coordinates": [
          120.821427,
          24.560159
        ]
      }
    },
    {
      "type": "Feature",
      "properties": {
        "CityName": "苗栗縣",
        "RegionName": "竹南鎮",
        "Address": "臺61線90.4公里與苗3-3線路口處",
        "DeptNm": "苗栗縣警察局",
        "BranchNm": "竹南分局",
        "direct": "北向南",
        "limit": "80"
      },
      "geometry": {
        "type": "Point",
        "coordinates": [
          120.843565,
          24.677557
        ]
      }
    },
    {
      "type": "Feature",
      "properties": {
        "CityName": "苗栗縣",
        "RegionName": "竹南鎮",
        "Address": "環市路與公教路口處（清寧橋前）",
        "DeptNm": "苗栗縣警察局",
        "BranchNm": "竹南分局",
        "direct": "東向西",
        "limit": "60"
      },
      "geometry": {
        "type": "Point",
        "coordinates": [
          120.869135,
          24.685066
        ]
      }
    },
    {
      "type": "Feature",
      "properties": {
        "CityName": "苗栗縣",
        "RegionName": "竹南鎮",
        "Address": "臺1己線3公里處",
        "DeptNm": "苗栗縣警察局",
        "BranchNm": "竹南分局",
        "direct": "西向東",
        "limit": "60"
      },
      "geometry": {
        "type": "Point",
        "coordinates": [
          120.872405,
          24.688701
        ]
      }
    },
    {
      "type": "Feature",
      "properties": {
        "CityName": "苗栗縣",
        "RegionName": "竹南鎮",
        "Address": "臺1線與苗2線口處(科學路口)",
        "DeptNm": "苗栗縣警察局",
        "BranchNm": "竹南分局",
        "direct": "南向北",
        "limit": "70"
      },
      "geometry": {
        "type": "Point",
        "coordinates": [
          120.877216,
          24.688734
        ]
      }
    },
    {
      "type": "Feature",
      "properties": {
        "CityName": "苗栗縣",
        "RegionName": "竹南鎮",
        "Address": "臺1己線1.3公里與明勝路口處",
        "DeptNm": "苗栗縣警察局",
        "BranchNm": "竹南分局",
        "direct": "東向西",
        "limit": "60"
      },
      "geometry": {
        "type": "Point",
        "coordinates": [
          120.878603,
          24.700922
        ]
      }
    },
    {
      "type": "Feature",
      "properties": {
        "CityName": "苗栗縣",
        "RegionName": "竹南鎮",
        "Address": "臺13線永貞路與公園路口處",
        "DeptNm": "苗栗縣警察局",
        "BranchNm": "竹南分局",
        "direct": "北向南",
        "limit": "60"
      },
      "geometry": {
        "type": "Point",
        "coordinates": [
          120.885306,
          24.701554
        ]
      }
    },
    {
      "type": "Feature",
      "properties": {
        "CityName": "苗栗縣",
        "RegionName": "竹南鎮",
        "Address": "臺13線2.5公里與友義路口處",
        "DeptNm": "苗栗縣警察局",
        "BranchNm": "竹南分局",
        "direct": "南向北",
        "limit": "60"
      },
      "geometry": {
        "type": "Point",
        "coordinates": [
          120.897234,
          24.709484
        ]
      }
    },
    {
      "type": "Feature",
      "properties": {
        "CityName": "苗栗縣",
        "RegionName": "頭份市",
        "Address": "124線8.45公里處",
        "DeptNm": "苗栗縣警察局",
        "BranchNm": "頭份分局",
        "direct": "東向西",
        "limit": "50"
      },
      "geometry": {
        "type": "Point",
        "coordinates": [
          120.88694,
          24.685
        ]
      }
    },
    {
      "type": "Feature",
      "properties": {
        "CityName": "苗栗縣",
        "RegionName": "頭份市",
        "Address": "124線10.75公里處",
        "DeptNm": "苗栗縣警察局",
        "BranchNm": "頭份分局",
        "direct": "東向西",
        "limit": "50"
      },
      "geometry": {
        "type": "Point",
        "coordinates": [
          120.88833,
          24.68583
        ]
      }
    },
    {
      "type": "Feature",
      "properties": {
        "CityName": "苗栗縣",
        "RegionName": "頭份市",
        "Address": "臺1線95.2公里處(紡安紡織公司口)",
        "DeptNm": "苗栗縣警察局",
        "BranchNm": "頭份分局",
        "direct": "南向北",
        "limit": "60"
      },
      "geometry": {
        "type": "Point",
        "coordinates": [
          120.896543,
          24.683493
        ]
      }
    },
    {
      "type": "Feature",
      "properties": {
        "CityName": "苗栗縣",
        "RegionName": "頭份市",
        "Address": "124線9.8公里處",
        "DeptNm": "苗栗縣警察局",
        "BranchNm": "頭份分局",
        "direct": "西向東",
        "limit": "50"
      },
      "geometry": {
        "type": "Point",
        "coordinates": [
          120.90083,
          24.68583
        ]
      }
    },
    {
      "type": "Feature",
      "properties": {
        "CityName": "苗栗縣",
        "RegionName": "頭份市",
        "Address": "中央路(頭份國中前)",
        "DeptNm": "苗栗縣警察局",
        "BranchNm": "頭份分局",
        "direct": "東西雙向",
        "limit": "50"
      },
      "geometry": {
        "type": "Point",
        "coordinates": [
          120.901115,
          24.6921
        ]
      }
    },
    {
      "type": "Feature",
      "properties": {
        "CityName": "苗栗縣",
        "RegionName": "頭份市",
        "Address": "臺1線98.3公里處",
        "DeptNm": "苗栗縣警察局",
        "BranchNm": "頭份分局",
        "direct": "南向北",
        "limit": "70"
      },
      "geometry": {
        "type": "Point",
        "coordinates": [
          120.902065,
          24.685159
        ]
      }
    },
    {
      "type": "Feature",
      "properties": {
        "CityName": "苗栗縣",
        "RegionName": "頭份市",
        "Address": "臺1線與苗10線口處",
        "DeptNm": "苗栗縣警察局",
        "BranchNm": "頭份分局",
        "direct": "北向南",
        "limit": "70"
      },
      "geometry": {
        "type": "Point",
        "coordinates": [
          120.902065,
          24.685159
        ]
      }
    },
    {
      "type": "Feature",
      "properties": {
        "CityName": "苗栗縣",
        "RegionName": "頭份市",
        "Address": "臺1線91.6公里與科東二路口處",
        "DeptNm": "苗栗縣警察局",
        "BranchNm": "頭份分局",
        "direct": "北向南",
        "limit": "60"
      },
      "geometry": {
        "type": "Point",
        "coordinates": [
          120.902065,
          24.685159
        ]
      }
    },
    {
      "type": "Feature",
      "properties": {
        "CityName": "苗栗縣",
        "RegionName": "頭份市",
        "Address": "中華路440號處",
        "DeptNm": "苗栗縣警察局",
        "BranchNm": "頭份分局",
        "direct": "南向北",
        "limit": "60"
      },
      "geometry": {
        "type": "Point",
        "coordinates": [
          120.905549,
          24.687418
        ]
      }
    },
    {
      "type": "Feature",
      "properties": {
        "CityName": "苗栗縣",
        "RegionName": "頭份市",
        "Address": "臺13線12.1公里處（尖山國小前）",
        "DeptNm": "苗栗縣警察局",
        "BranchNm": "頭份分局",
        "direct": "南向北",
        "limit": "60"
      },
      "geometry": {
        "type": "Point",
        "coordinates": [
          120.905549,
          24.687418
        ]
      }
    },
    {
      "type": "Feature",
      "properties": {
        "CityName": "苗栗縣",
        "RegionName": "頭份市",
        "Address": "124甲線1公里東向與土牛社區路口處",
        "DeptNm": "苗栗縣警察局",
        "BranchNm": "頭份分局",
        "direct": "西向東",
        "limit": "50"
      },
      "geometry": {
        "type": "Point",
        "coordinates": [
          120.905549,
          24.687418
        ]
      }
    },
    {
      "type": "Feature",
      "properties": {
        "CityName": "苗栗縣",
        "RegionName": "頭份市",
        "Address": "124甲線1公里西向與土牛社區路口處",
        "DeptNm": "苗栗縣警察局",
        "BranchNm": "頭份分局",
        "direct": "東向西",
        "limit": "50"
      },
      "geometry": {
        "type": "Point",
        "coordinates": [
          120.905549,
          24.687418
        ]
      }
    },
    {
      "type": "Feature",
      "properties": {
        "CityName": "苗栗縣",
        "RegionName": "後龍鎮",
        "Address": "臺61線與苗11線口處",
        "DeptNm": "苗栗縣警察局",
        "BranchNm": "竹南分局",
        "direct": "南向北",
        "limit": "80"
      },
      "geometry": {
        "type": "Point",
        "coordinates": [
          120.773605,
          24.624644
        ]
      }
    },
    {
      "type": "Feature",
      "properties": {
        "CityName": "苗栗縣",
        "RegionName": "後龍鎮",
        "Address": "臺6線3.7公里處(後龍交流道附近)",
        "DeptNm": "苗栗縣警察局",
        "BranchNm": "竹南分局",
        "direct": "西向東",
        "limit": "60"
      },
      "geometry": {
        "type": "Point",
        "coordinates": [
          120.78722,
          24.59722
        ]
      }
    },
    {
      "type": "Feature",
      "properties": {
        "CityName": "苗栗縣",
        "RegionName": "後龍鎮",
        "Address": "臺1線與成功路口處",
        "DeptNm": "苗栗縣警察局",
        "BranchNm": "竹南分局",
        "direct": "南向北",
        "limit": "60"
      },
      "geometry": {
        "type": "Point",
        "coordinates": [
          120.821427,
          24.560159
        ]
      }
    },
    {
      "type": "Feature",
      "properties": {
        "CityName": "苗栗縣",
        "RegionName": "後龍鎮",
        "Address": "臺13甲線12.4公里處",
        "DeptNm": "苗栗縣警察局",
        "BranchNm": "竹南分局",
        "direct": "北向南",
        "limit": "60"
      },
      "geometry": {
        "type": "Point",
        "coordinates": [
          120.83167,
          24.60556
        ]
      }
    },
    {
      "type": "Feature",
      "properties": {
        "CityName": "苗栗縣",
        "RegionName": "卓蘭鎮",
        "Address": "臺3線146.8公里處（豐田國小旁）",
        "DeptNm": "苗栗縣警察局",
        "BranchNm": "大湖分局",
        "direct": "北向南",
        "limit": "60"
      },
      "geometry": {
        "type": "Point",
        "coordinates": [
          120.821783,
          24.310795
        ]
      }
    },
    {
      "type": "Feature",
      "properties": {
        "CityName": "苗栗縣",
        "RegionName": "大湖鄉",
        "Address": "臺3線131.6公里處",
        "DeptNm": "苗栗縣警察局",
        "BranchNm": "大湖分局",
        "direct": "南向北",
        "limit": "60"
      },
      "geometry": {
        "type": "Point",
        "coordinates": [
          120.805664,
          24.226929
        ]
      }
    },
    {
      "type": "Feature",
      "properties": {
        "CityName": "苗栗縣",
        "RegionName": "大湖鄉",
        "Address": "臺3線與中原路口處",
        "DeptNm": "苗栗縣警察局",
        "BranchNm": "大湖分局",
        "direct": "南向北",
        "limit": "60"
      },
      "geometry": {
        "type": "Point",
        "coordinates": [
          120.860429,
          24.395475
        ]
      }
    },
    {
      "type": "Feature",
      "properties": {
        "CityName": "苗栗縣",
        "RegionName": "大湖鄉",
        "Address": "臺3線119.6公里處",
        "DeptNm": "苗栗縣警察局",
        "BranchNm": "大湖分局",
        "direct": "南、北雙向",
        "limit": "60"
      },
      "geometry": {
        "type": "Point",
        "coordinates": [
          120.860429,
          24.395475
        ]
      }
    },
    {
      "type": "Feature",
      "properties": {
        "CityName": "苗栗縣",
        "RegionName": "大湖鄉",
        "Address": "臺3線與苗55線口處(南湖國小前)",
        "DeptNm": "苗栗縣警察局",
        "BranchNm": "大湖分局",
        "direct": "南向北",
        "limit": "60"
      },
      "geometry": {
        "type": "Point",
        "coordinates": [
          120.860429,
          24.395475
        ]
      }
    },
    {
      "type": "Feature",
      "properties": {
        "CityName": "苗栗縣",
        "RegionName": "公館鄉",
        "Address": "臺72線24公里處",
        "DeptNm": "苗栗縣警察局",
        "BranchNm": "苗栗分局",
        "direct": "東西雙向",
        "limit": "80"
      },
      "geometry": {
        "type": "Point",
        "coordinates": [
          120.823851,
          24.537396
        ]
      }
    },
    {
      "type": "Feature",
      "properties": {
        "CityName": "苗栗縣",
        "RegionName": "公館鄉",
        "Address": "119甲線(沿山道)3.4公里處",
        "DeptNm": "苗栗縣警察局",
        "BranchNm": "苗栗分局",
        "direct": "北向南",
        "limit": "60"
      },
      "geometry": {
        "type": "Point",
        "coordinates": [
          120.83583,
          24.52889
        ]
      }
    },
    {
      "type": "Feature",
      "properties": {
        "CityName": "苗栗縣",
        "RegionName": "銅鑼鄉",
        "Address": "臺13線與128線口處",
        "DeptNm": "苗栗縣警察局",
        "BranchNm": "苗栗分局",
        "direct": "北向南",
        "limit": "60"
      },
      "geometry": {
        "type": "Point",
        "coordinates": [
          120.781187,
          24.463588
        ]
      }
    },
    {
      "type": "Feature",
      "properties": {
        "CityName": "苗栗縣",
        "RegionName": "銅鑼鄉",
        "Address": "臺13線與苗38－1線口處（外環道與九湖橋頭）",
        "DeptNm": "苗栗縣警察局",
        "BranchNm": "苗栗分局",
        "direct": "北向南",
        "limit": "60"
      },
      "geometry": {
        "type": "Point",
        "coordinates": [
          120.787443,
          24.490655
        ]
      }
    },
    {
      "type": "Feature",
      "properties": {
        "CityName": "苗栗縣",
        "RegionName": "銅鑼鄉",
        "Address": "128線與苗27線口處",
        "DeptNm": "苗栗縣警察局",
        "BranchNm": "苗栗分局",
        "direct": "北向南",
        "limit": "60"
      },
      "geometry": {
        "type": "Point",
        "coordinates": [
          120.790228,
          24.491713
        ]
      }
    },
    {
      "type": "Feature",
      "properties": {
        "CityName": "苗栗縣",
        "RegionName": "銅鑼鄉",
        "Address": "臺72線與119甲線口處",
        "DeptNm": "苗栗縣警察局",
        "BranchNm": "苗栗分局",
        "direct": "東向西",
        "limit": "80"
      },
      "geometry": {
        "type": "Point",
        "coordinates": [
          120.802561,
          24.499394
        ]
      }
    },
    {
      "type": "Feature",
      "properties": {
        "CityName": "苗栗縣",
        "RegionName": "南庄鄉",
        "Address": "臺3線與苗20線口處",
        "DeptNm": "苗栗縣警察局",
        "BranchNm": "頭份分局",
        "direct": "南向北",
        "limit": "60"
      },
      "geometry": {
        "type": "Point",
        "coordinates": [
          120.998709,
          24.601582
        ]
      }
    },
    {
      "type": "Feature",
      "properties": {
        "CityName": "苗栗縣",
        "RegionName": "三義鄉",
        "Address": "臺13線52.4公里處(龍騰派出所前)",
        "DeptNm": "苗栗縣警察局",
        "BranchNm": "苗栗分局",
        "direct": "北向南",
        "limit": "60"
      },
      "geometry": {
        "type": "Point",
        "coordinates": [
          120.74333,
          24.36694
        ]
      }
    },
    {
      "type": "Feature",
      "properties": {
        "CityName": "苗栗縣",
        "RegionName": "三義鄉",
        "Address": "140線15.3公里處",
        "DeptNm": "苗栗縣警察局",
        "BranchNm": "苗栗分局",
        "direct": "東西向",
        "limit": "60"
      },
      "geometry": {
        "type": "Point",
        "coordinates": [
          120.769476,
          24.389263
        ]
      }
    },
    {
      "type": "Feature",
      "properties": {
        "CityName": "苗栗縣",
        "RegionName": "三義鄉",
        "Address": "140線20公里處",
        "DeptNm": "苗栗縣警察局",
        "BranchNm": "苗栗分局",
        "direct": "東西雙向",
        "limit": "60"
      },
      "geometry": {
        "type": "Point",
        "coordinates": [
          120.773013,
          24.411831
        ]
      }
    },
    {
      "type": "Feature",
      "properties": {
        "CityName": "苗栗縣",
        "RegionName": "造橋鄉",
        "Address": "臺1線102.2公里處（育達大學前）",
        "DeptNm": "苗栗縣警察局",
        "BranchNm": "竹南分局",
        "direct": "南向北",
        "limit": "70"
      },
      "geometry": {
        "type": "Point",
        "coordinates": [
          120.844081,
          24.642979
        ]
      }
    },
    {
      "type": "Feature",
      "properties": {
        "CityName": "苗栗縣",
        "RegionName": "造橋鄉",
        "Address": "南外環道0.4公里處",
        "DeptNm": "苗栗縣警察局",
        "BranchNm": "竹南分局",
        "direct": "南北雙向",
        "limit": "60"
      },
      "geometry": {
        "type": "Point",
        "coordinates": [
          120.861379,
          24.624807
        ]
      }
    },
    {
      "type": "Feature",
      "properties": {
        "CityName": "苗栗縣",
        "RegionName": "造橋鄉",
        "Address": "臺1線與苗9線口處（談文派出所前）",
        "DeptNm": "苗栗縣警察局",
        "BranchNm": "竹南分局",
        "direct": "南向北",
        "limit": "70"
      },
      "geometry": {
        "type": "Point",
        "coordinates": [
          120.861379,
          24.624807
        ]
      }
    },
    {
      "type": "Feature",
      "properties": {
        "CityName": "苗栗縣",
        "RegionName": "三灣鄉",
        "Address": "臺3線102.8公里處",
        "DeptNm": "苗栗縣警察局",
        "BranchNm": "頭份分局",
        "direct": "南北雙向",
        "limit": "60"
      },
      "geometry": {
        "type": "Point",
        "coordinates": [
          120.93026,
          24.630529
        ]
      }
    },
    {
      "type": "Feature",
      "properties": {
        "CityName": "苗栗縣",
        "RegionName": "三灣鄉",
        "Address": "臺3線95.3公里處",
        "DeptNm": "苗栗縣警察局",
        "BranchNm": "頭份分局",
        "direct": "南向北",
        "limit": "60"
      },
      "geometry": {
        "type": "Point",
        "coordinates": [
          120.954399,
          24.648899
        ]
      }
    },
    {
      "type": "Feature",
      "properties": {
        "CityName": "苗栗縣",
        "RegionName": "三灣鄉",
        "Address": "臺3線101.5公里處(大河老街口)",
        "DeptNm": "苗栗縣警察局",
        "BranchNm": "頭份分局",
        "direct": "南向北",
        "limit": "60"
      },
      "geometry": {
        "type": "Point",
        "coordinates": [
          120.956316,
          24.636398
        ]
      }
    },
    {
      "type": "Feature",
      "properties": {
        "CityName": "苗栗縣",
        "RegionName": "獅潭鄉",
        "Address": "臺3線108公里處",
        "DeptNm": "苗栗縣警察局",
        "BranchNm": "大湖分局",
        "direct": "南、北雙向",
        "limit": "60"
      },
      "geometry": {
        "type": "Point",
        "coordinates": [
          120.714829,
          23.803983
        ]
      }
    },
    {
      "type": "Feature",
      "properties": {
        "CityName": "苗栗縣",
        "RegionName": "獅潭鄉",
        "Address": "臺3線111.8公里處",
        "DeptNm": "苗栗縣警察局",
        "BranchNm": "大湖分局",
        "direct": "北向南",
        "limit": "60"
      },
      "geometry": {
        "type": "Point",
        "coordinates": [
          120.916464,
          24.52958
        ]
      }
    },
    {
      "type": "Feature",
      "properties": {
        "CityName": "苗栗縣",
        "RegionName": "獅潭鄉",
        "Address": "臺3線113.5公里處",
        "DeptNm": "苗栗縣警察局",
        "BranchNm": "大湖分局",
        "direct": "北向南",
        "limit": "60"
      },
      "geometry": {
        "type": "Point",
        "coordinates": [
          120.916464,
          24.52958
        ]
      }
    },
    {
      "type": "Feature",
      "properties": {
        "CityName": "苗栗縣",
        "RegionName": "獅潭鄉",
        "Address": "臺3線120.9公里處",
        "DeptNm": "苗栗縣警察局",
        "BranchNm": "大湖分局",
        "direct": "北向南",
        "limit": "60"
      },
      "geometry": {
        "type": "Point",
        "coordinates": [
          120.916464,
          24.52958
        ]
      }
    },
    {
      "type": "Feature",
      "properties": {
        "CityName": "苗栗縣",
        "RegionName": "獅潭鄉",
        "Address": "臺3線113.1公里處(獅潭國中旁)",
        "DeptNm": "苗栗縣警察局",
        "BranchNm": "大湖分局",
        "direct": "北向南",
        "limit": "60"
      },
      "geometry": {
        "type": "Point",
        "coordinates": [
          120.92361,
          24.545
        ]
      }
    },
    {
      "type": "Feature",
      "properties": {
        "CityName": "彰化縣",
        "RegionName": "彰化市",
        "Address": "金馬、忠誠路口",
        "DeptNm": "彰化縣警察局",
        "BranchNm": "彰化分局",
        "direct": "南向",
        "limit": "70"
      },
      "geometry": {
        "type": "Point",
        "coordinates": [
          120.53111,
          24.08472
        ]
      }
    },
    {
      "type": "Feature",
      "properties": {
        "CityName": "彰化縣",
        "RegionName": "彰化市",
        "Address": "中山、孔門路口",
        "DeptNm": "彰化縣警察局",
        "BranchNm": "彰化分局",
        "direct": "北向",
        "limit": "50"
      },
      "geometry": {
        "type": "Point",
        "coordinates": [
          120.54472,
          24.07861
        ]
      }
    },
    {
      "type": "Feature",
      "properties": {
        "CityName": "彰化縣",
        "RegionName": "彰化市",
        "Address": "建國北路",
        "DeptNm": "彰化縣警察局",
        "BranchNm": "彰化分局",
        "direct": "西向",
        "limit": "50"
      },
      "geometry": {
        "type": "Point",
        "coordinates": [
          120.55056,
          24.09194
        ]
      }
    },
    {
      "type": "Feature",
      "properties": {
        "CityName": "彰化縣",
        "RegionName": "彰化市",
        "Address": "中興路與介壽橋口",
        "DeptNm": "彰化縣警察局",
        "BranchNm": "彰化分局",
        "direct": "西向",
        "limit": "50"
      },
      "geometry": {
        "type": "Point",
        "coordinates": [
          120.5525,
          24.07028
        ]
      }
    },
    {
      "type": "Feature",
      "properties": {
        "CityName": "彰化縣",
        "RegionName": "彰化市",
        "Address": "中山、中正路口",
        "DeptNm": "彰化縣警察局",
        "BranchNm": "彰化分局",
        "direct": "北向",
        "limit": "50"
      },
      "geometry": {
        "type": "Point",
        "coordinates": [
          120.5525,
          24.08389
        ]
      }
    },
    {
      "type": "Feature",
      "properties": {
        "CityName": "彰化縣",
        "RegionName": "彰化市",
        "Address": "台74甲線與彰員路口",
        "DeptNm": "彰化縣警察局",
        "BranchNm": "彰化分局",
        "direct": "南向",
        "limit": "70"
      },
      "geometry": {
        "type": "Point",
        "coordinates": [
          120.55556,
          24.02333
        ]
      }
    },
    {
      "type": "Feature",
      "properties": {
        "CityName": "彰化縣",
        "RegionName": "彰化市",
        "Address": "金馬路一段、泰和路二段415巷口",
        "DeptNm": "彰化縣警察局",
        "BranchNm": "彰化分局",
        "direct": "北向",
        "limit": "70"
      },
      "geometry": {
        "type": "Point",
        "coordinates": [
          120.55722,
          24.09833
        ]
      }
    },
    {
      "type": "Feature",
      "properties": {
        "CityName": "彰化縣",
        "RegionName": "彰化市",
        "Address": "彰化市金馬東路與金馬東路317巷口",
        "DeptNm": "彰化縣警察局",
        "BranchNm": "彰化分局",
        "direct": "南向",
        "limit": "70"
      },
      "geometry": {
        "type": "Point",
        "coordinates": [
          120.575753,
          24.093751
        ]
      }
    },
    {
      "type": "Feature",
      "properties": {
        "CityName": "彰化縣",
        "RegionName": "彰化市",
        "Address": "台1線186.8公里",
        "DeptNm": "彰化縣警察局",
        "BranchNm": "彰化分局",
        "direct": "北向",
        "limit": "70"
      },
      "geometry": {
        "type": "Point",
        "coordinates": [
          120.58028,
          24.10111
        ]
      }
    },
    {
      "type": "Feature",
      "properties": {
        "CityName": "彰化縣",
        "RegionName": "彰化市",
        "Address": "台74甲線3.4公里",
        "DeptNm": "彰化縣警察局",
        "BranchNm": "彰化分局",
        "direct": "南向",
        "limit": "70"
      },
      "geometry": {
        "type": "Point",
        "coordinates": [
          120.593662,
          24.073111
        ]
      }
    },
    {
      "type": "Feature",
      "properties": {
        "CityName": "彰化縣",
        "RegionName": "彰化市",
        "Address": "台74甲線2.2公里",
        "DeptNm": "彰化縣警察局",
        "BranchNm": "彰化分局",
        "direct": "東西雙向",
        "limit": "70"
      },
      "geometry": {
        "type": "Point",
        "coordinates": [
          120.59444,
          24.08222
        ]
      }
    },
    {
      "type": "Feature",
      "properties": {
        "CityName": "彰化縣",
        "RegionName": "彰化市",
        "Address": "台14線、福興路口",
        "DeptNm": "彰化縣警察局",
        "BranchNm": "彰化分局",
        "direct": "東向",
        "limit": "70"
      },
      "geometry": {
        "type": "Point",
        "coordinates": [
          120.62194,
          24.04528
        ]
      }
    },
    {
      "type": "Feature",
      "properties": {
        "CityName": "彰化縣",
        "RegionName": "鹿港鎮",
        "Address": "台17線31.7公里",
        "DeptNm": "彰化縣警察局",
        "BranchNm": "鹿港分局",
        "direct": "北向",
        "limit": "70"
      },
      "geometry": {
        "type": "Point",
        "coordinates": [
          120.44583,
          24.08639
        ]
      }
    },
    {
      "type": "Feature",
      "properties": {
        "CityName": "彰化縣",
        "RegionName": "鹿港鎮",
        "Address": "台17線31.3公里(長安宮前)",
        "DeptNm": "彰化縣警察局",
        "BranchNm": "鹿港分局",
        "direct": "南向",
        "limit": "70"
      },
      "geometry": {
        "type": "Point",
        "coordinates": [
          120.44806,
          24.09083
        ]
      }
    },
    {
      "type": "Feature",
      "properties": {
        "CityName": "彰化縣",
        "RegionName": "和美鎮",
        "Address": "線東路五段291號南側170公尺處",
        "DeptNm": "彰化縣警察局",
        "BranchNm": "和美分局",
        "direct": "北向",
        "limit": "60"
      },
      "geometry": {
        "type": "Point",
        "coordinates": [
          120.489979,
          24.126819
        ]
      }
    },
    {
      "type": "Feature",
      "properties": {
        "CityName": "彰化縣",
        "RegionName": "和美鎮",
        "Address": "和美鎮和港路與西興路、北明路口",
        "DeptNm": "彰化縣警察局",
        "BranchNm": "和美分局",
        "direct": "北向",
        "limit": "60"
      },
      "geometry": {
        "type": "Point",
        "coordinates": [
          120.495883,
          24.114036
        ]
      }
    },
    {
      "type": "Feature",
      "properties": {
        "CityName": "彰化縣",
        "RegionName": "和美鎮",
        "Address": "彰美、中興路口",
        "DeptNm": "彰化縣警察局",
        "BranchNm": "和美分局",
        "direct": "西向",
        "limit": "60"
      },
      "geometry": {
        "type": "Point",
        "coordinates": [
          120.52417,
          24.09917
        ]
      }
    },
    {
      "type": "Feature",
      "properties": {
        "CityName": "彰化縣",
        "RegionName": "福興鄉",
        "Address": "沿海路、龍舟路路口",
        "DeptNm": "彰化縣警察局",
        "BranchNm": "鹿港分局",
        "direct": "西向",
        "limit": "50"
      },
      "geometry": {
        "type": "Point",
        "coordinates": [
          120.431013,
          24.048855
        ]
      }
    },
    {
      "type": "Feature",
      "properties": {
        "CityName": "彰化縣",
        "RegionName": "福興鄉",
        "Address": "福興鄉縣道144線與南環路口",
        "DeptNm": "彰化縣警察局",
        "BranchNm": "鹿港分局",
        "direct": "東向",
        "limit": "70"
      },
      "geometry": {
        "type": "Point",
        "coordinates": [
          120.444224,
          24.03323
        ]
      }
    },
    {
      "type": "Feature",
      "properties": {
        "CityName": "彰化縣",
        "RegionName": "福興鄉",
        "Address": "福興鄉彰鹿路6段與彰鹿路6段314巷路口",
        "DeptNm": "彰化縣警察局",
        "BranchNm": "鹿港分局",
        "direct": "西向",
        "limit": "60"
      },
      "geometry": {
        "type": "Point",
        "coordinates": [
          120.462977,
          24.046333
        ]
      }
    },
    {
      "type": "Feature",
      "properties": {
        "CityName": "彰化縣",
        "RegionName": "福興鄉",
        "Address": "台19線、番花路口",
        "DeptNm": "彰化縣警察局",
        "BranchNm": "鹿港分局",
        "direct": "南向",
        "limit": "60"
      },
      "geometry": {
        "type": "Point",
        "coordinates": [
          120.48861,
          24.01611
        ]
      }
    },
    {
      "type": "Feature",
      "properties": {
        "CityName": "彰化縣",
        "RegionName": "秀水鄉",
        "Address": "彰鹿路、民意街口",
        "DeptNm": "彰化縣警察局",
        "BranchNm": "鹿港分局",
        "direct": "東向",
        "limit": "60"
      },
      "geometry": {
        "type": "Point",
        "coordinates": [
          120.496674,
          24.050226
        ]
      }
    },
    {
      "type": "Feature",
      "properties": {
        "CityName": "彰化縣",
        "RegionName": "秀水鄉",
        "Address": "台19線、安鶴路口",
        "DeptNm": "彰化縣警察局",
        "BranchNm": "鹿港分局",
        "direct": "北向",
        "limit": "60"
      },
      "geometry": {
        "type": "Point",
        "coordinates": [
          120.51111,
          24.05056
        ]
      }
    },
    {
      "type": "Feature",
      "properties": {
        "CityName": "彰化縣",
        "RegionName": "花壇鄉",
        "Address": "台1線198.4公里",
        "DeptNm": "彰化縣警察局",
        "BranchNm": "彰化分局",
        "direct": "",
        "limit": ""
      },
      "geometry": {
        "type": "Point",
        "coordinates": [
          120.53889,
          24.02694
        ]
      }
    },
    {
      "type": "Feature",
      "properties": {
        "CityName": "彰化縣",
        "RegionName": "花壇鄉",
        "Address": "中山路1段95號(福安宮前)",
        "DeptNm": "彰化縣警察局",
        "BranchNm": "彰化分局",
        "direct": "北向",
        "limit": "70"
      },
      "geometry": {
        "type": "Point",
        "coordinates": [
          120.54389,
          24.02167
        ]
      }
    },
    {
      "type": "Feature",
      "properties": {
        "CityName": "彰化縣",
        "RegionName": "芬園鄉",
        "Address": "芬園鄉大彰路與縣安路口",
        "DeptNm": "彰化縣警察局",
        "BranchNm": "彰化分局",
        "direct": "東向",
        "limit": "50"
      },
      "geometry": {
        "type": "Point",
        "coordinates": [
          120.626873,
          24.010653
        ]
      }
    },
    {
      "type": "Feature",
      "properties": {
        "CityName": "彰化縣",
        "RegionName": "員林市",
        "Address": "莒光路、員鹿路路口",
        "DeptNm": "彰化縣警察局",
        "BranchNm": "員林分局",
        "direct": "南向",
        "limit": "60"
      },
      "geometry": {
        "type": "Point",
        "coordinates": [
          120.566196,
          23.957156
        ]
      }
    },
    {
      "type": "Feature",
      "properties": {
        "CityName": "彰化縣",
        "RegionName": "員林市",
        "Address": "員林大道(30米外環道)、員集路口",
        "DeptNm": "彰化縣警察局",
        "BranchNm": "員林分局",
        "direct": "西向",
        "limit": "50"
      },
      "geometry": {
        "type": "Point",
        "coordinates": [
          120.575981,
          23.947822
        ]
      }
    },
    {
      "type": "Feature",
      "properties": {
        "CityName": "彰化縣",
        "RegionName": "溪湖鎮",
        "Address": "溪湖鎮彰水路台19線、海豐路口",
        "DeptNm": "彰化縣警察局",
        "BranchNm": "溪湖分局",
        "direct": "南向",
        "limit": "70"
      },
      "geometry": {
        "type": "Point",
        "coordinates": [
          120.482855,
          23.937469
        ]
      }
    },
    {
      "type": "Feature",
      "properties": {
        "CityName": "彰化縣",
        "RegionName": "田中鎮",
        "Address": "田中鎮斗中路與大社南路(彰95高鐵站連接道路)路口",
        "DeptNm": "彰化縣警察局",
        "BranchNm": "田中分局",
        "direct": "西向",
        "limit": "60"
      },
      "geometry": {
        "type": "Point",
        "coordinates": [
          120.576788,
          23.86265
        ]
      }
    },
    {
      "type": "Feature",
      "properties": {
        "CityName": "彰化縣",
        "RegionName": "田中鎮",
        "Address": "縣141線13.3公里南下",
        "DeptNm": "彰化縣警察局",
        "BranchNm": "田中分局",
        "direct": "南向",
        "limit": "60"
      },
      "geometry": {
        "type": "Point",
        "coordinates": [
          120.59444,
          23.84583
        ]
      }
    },
    {
      "type": "Feature",
      "properties": {
        "CityName": "彰化縣",
        "RegionName": "田中鎮",
        "Address": "員集路、東閔路路口",
        "DeptNm": "彰化縣警察局",
        "BranchNm": "田中分局",
        "direct": "北向",
        "limit": "60"
      },
      "geometry": {
        "type": "Point",
        "coordinates": [
          120.60113,
          23.839055
        ]
      }
    },
    {
      "type": "Feature",
      "properties": {
        "CityName": "彰化縣",
        "RegionName": "大村鄉",
        "Address": "台1線201.4公里",
        "DeptNm": "彰化縣警察局",
        "BranchNm": "員林分局",
        "direct": "南北雙向",
        "limit": "70"
      },
      "geometry": {
        "type": "Point",
        "coordinates": [
          120.56194,
          23.94417
        ]
      }
    },
    {
      "type": "Feature",
      "properties": {
        "CityName": "彰化縣",
        "RegionName": "大村鄉",
        "Address": "縣146線12.3公里中正東路東往西",
        "DeptNm": "彰化縣警察局",
        "BranchNm": "員林分局",
        "direct": "西向",
        "limit": "60"
      },
      "geometry": {
        "type": "Point",
        "coordinates": [
          120.56361,
          23.98917
        ]
      }
    },
    {
      "type": "Feature",
      "properties": {
        "CityName": "彰化縣",
        "RegionName": "埔鹽鄉",
        "Address": "埔鹽鄉彰水路二段與中山路口",
        "DeptNm": "彰化縣警察局",
        "BranchNm": "溪湖分局",
        "direct": "北向",
        "limit": "60"
      },
      "geometry": {
        "type": "Point",
        "coordinates": [
          120.47615,
          23.997436
        ]
      }
    },
    {
      "type": "Feature",
      "properties": {
        "CityName": "彰化縣",
        "RegionName": "埔心鄉",
        "Address": "埔心鄉員林大道(30米外環道)與員鹿路路口",
        "DeptNm": "彰化縣警察局",
        "BranchNm": "員林分局",
        "direct": "南向",
        "limit": "50"
      },
      "geometry": {
        "type": "Point",
        "coordinates": [
          120.562217,
          23.957081
        ]
      }
    },
    {
      "type": "Feature",
      "properties": {
        "CityName": "彰化縣",
        "RegionName": "永靖鄉",
        "Address": "永靖鄉中山路1段與中山路1段 351巷路口",
        "DeptNm": "彰化縣警察局",
        "BranchNm": "北斗分局",
        "direct": "南向",
        "limit": "70"
      },
      "geometry": {
        "type": "Point",
        "coordinates": [
          120.546314,
          23.922073
        ]
      }
    },
    {
      "type": "Feature",
      "properties": {
        "CityName": "彰化縣",
        "RegionName": "社頭鄉",
        "Address": "社頭鄉 中山路與和平三路口",
        "DeptNm": "彰化縣警察局",
        "BranchNm": "田中分局",
        "direct": "北向",
        "limit": "60"
      },
      "geometry": {
        "type": "Point",
        "coordinates": [
          120.583772,
          23.893861
        ]
      }
    },
    {
      "type": "Feature",
      "properties": {
        "CityName": "彰化縣",
        "RegionName": "社頭鄉",
        "Address": "縣141線6.6公里北上",
        "DeptNm": "彰化縣警察局",
        "BranchNm": "田中分局",
        "direct": "北向",
        "limit": "60"
      },
      "geometry": {
        "type": "Point",
        "coordinates": [
          120.585,
          23.86278
        ]
      }
    },
    {
      "type": "Feature",
      "properties": {
        "CityName": "彰化縣",
        "RegionName": "二水鄉",
        "Address": "縣152線與二水鄉外環道(外環道路口)",
        "DeptNm": "彰化縣警察局",
        "BranchNm": "田中分局",
        "direct": "南向",
        "limit": "50"
      },
      "geometry": {
        "type": "Point",
        "coordinates": [
          120.61972,
          23.80611
        ]
      }
    },
    {
      "type": "Feature",
      "properties": {
        "CityName": "彰化縣",
        "RegionName": "二水鄉",
        "Address": "二水鄉縣141線21.594公里(二水鄉南通路二段398號對面)",
        "DeptNm": "彰化縣警察局",
        "BranchNm": "田中分局",
        "direct": "南向",
        "limit": "50"
      },
      "geometry": {
        "type": "Point",
        "coordinates": [
          120.628014,
          23.801483
        ]
      }
    },
    {
      "type": "Feature",
      "properties": {
        "CityName": "彰化縣",
        "RegionName": "二水鄉",
        "Address": "縣152線與二水鄉外環道(往名間方向)",
        "DeptNm": "彰化縣警察局",
        "BranchNm": "田中分局",
        "direct": "南向",
        "limit": "50"
      },
      "geometry": {
        "type": "Point",
        "coordinates": [
          120.67444,
          23.81694
        ]
      }
    },
    {
      "type": "Feature",
      "properties": {
        "CityName": "彰化縣",
        "RegionName": "北斗鎮",
        "Address": "斗苑路、斗苑二路307巷口",
        "DeptNm": "彰化縣警察局",
        "BranchNm": "北斗分局",
        "direct": "東向",
        "limit": "60"
      },
      "geometry": {
        "type": "Point",
        "coordinates": [
          120.510235,
          23.878146
        ]
      }
    },
    {
      "type": "Feature",
      "properties": {
        "CityName": "彰化縣",
        "RegionName": "北斗鎮",
        "Address": "北斗鎮中山路與斗苑路口",
        "DeptNm": "彰化縣警察局",
        "BranchNm": "北斗分局",
        "direct": "南向",
        "limit": "50"
      },
      "geometry": {
        "type": "Point",
        "coordinates": [
          120.517192,
          23.873513
        ]
      }
    },
    {
      "type": "Feature",
      "properties": {
        "CityName": "彰化縣",
        "RegionName": "田尾鄉",
        "Address": "台1線214.6公里南下",
        "DeptNm": "彰化縣警察局",
        "BranchNm": "北斗分局",
        "direct": "南向",
        "limit": "50"
      },
      "geometry": {
        "type": "Point",
        "coordinates": [
          120.50639,
          23.86167
        ]
      }
    },
    {
      "type": "Feature",
      "properties": {
        "CityName": "彰化縣",
        "RegionName": "田尾鄉",
        "Address": "台1線214公里北上",
        "DeptNm": "彰化縣警察局",
        "BranchNm": "北斗分局",
        "direct": "北向",
        "limit": "70"
      },
      "geometry": {
        "type": "Point",
        "coordinates": [
          120.50722,
          23.8625
        ]
      }
    },
    {
      "type": "Feature",
      "properties": {
        "CityName": "彰化縣",
        "RegionName": "埤頭鄉",
        "Address": "彰水路、庄子路口",
        "DeptNm": "彰化縣警察局",
        "BranchNm": "北斗分局",
        "direct": "北向",
        "limit": "70"
      },
      "geometry": {
        "type": "Point",
        "coordinates": [
          120.460796,
          23.894117
        ]
      }
    },
    {
      "type": "Feature",
      "properties": {
        "CityName": "彰化縣",
        "RegionName": "埤頭鄉",
        "Address": "台19線25.3公里北上東外環",
        "DeptNm": "彰化縣警察局",
        "BranchNm": "北斗分局",
        "direct": "北向",
        "limit": "70"
      },
      "geometry": {
        "type": "Point",
        "coordinates": [
          120.46972,
          23.89861
        ]
      }
    },
    {
      "type": "Feature",
      "properties": {
        "CityName": "彰化縣",
        "RegionName": "埤頭鄉",
        "Address": "埤頭鄉東環路與庄子路282巷路口",
        "DeptNm": "彰化縣警察局",
        "BranchNm": "田中分局",
        "direct": "南向",
        "limit": "70"
      },
      "geometry": {
        "type": "Point",
        "coordinates": [
          120.476714,
          23.896596
        ]
      }
    },
    {
      "type": "Feature",
      "properties": {
        "CityName": "彰化縣",
        "RegionName": "埤頭鄉",
        "Address": "埤頭鄉斗苑東路與中南路口",
        "DeptNm": "彰化縣警察局",
        "BranchNm": "北斗分局",
        "direct": "西向",
        "limit": "60"
      },
      "geometry": {
        "type": "Point",
        "coordinates": [
          120.478231,
          23.889475
        ]
      }
    },
    {
      "type": "Feature",
      "properties": {
        "CityName": "彰化縣",
        "RegionName": "芳苑鄉",
        "Address": "台17線與新上路口",
        "DeptNm": "彰化縣警察局",
        "BranchNm": "芳苑分局",
        "direct": "南向",
        "limit": "70"
      },
      "geometry": {
        "type": "Point",
        "coordinates": [
          120.3075,
          23.90333
        ]
      }
    },
    {
      "type": "Feature",
      "properties": {
        "CityName": "彰化縣",
        "RegionName": "芳苑鄉",
        "Address": "台17線59.3公里(芳苑鄉芳新路芳苑段801號)",
        "DeptNm": "彰化縣警察局",
        "BranchNm": "芳苑分局",
        "direct": "南北雙向",
        "limit": "70"
      },
      "geometry": {
        "type": "Point",
        "coordinates": [
          120.32361,
          23.93417
        ]
      }
    },
    {
      "type": "Feature",
      "properties": {
        "CityName": "彰化縣",
        "RegionName": "芳苑鄉",
        "Address": "台17線53.7公里",
        "DeptNm": "彰化縣警察局",
        "BranchNm": "芳苑分局",
        "direct": "南北雙向",
        "limit": "70"
      },
      "geometry": {
        "type": "Point",
        "coordinates": [
          120.33472,
          23.95222
        ]
      }
    },
    {
      "type": "Feature",
      "properties": {
        "CityName": "彰化縣",
        "RegionName": "芳苑鄉",
        "Address": "台17線、功湖路口",
        "DeptNm": "彰化縣警察局",
        "BranchNm": "芳苑分局",
        "direct": "北向",
        "limit": "70"
      },
      "geometry": {
        "type": "Point",
        "coordinates": [
          120.34667,
          23.96417
        ]
      }
    },
    {
      "type": "Feature",
      "properties": {
        "CityName": "彰化縣",
        "RegionName": "芳苑鄉",
        "Address": "台17線、中正路口",
        "DeptNm": "彰化縣警察局",
        "BranchNm": "芳苑分局",
        "direct": "北向",
        "limit": "70"
      },
      "geometry": {
        "type": "Point",
        "coordinates": [
          120.35222,
          23.975
        ]
      }
    },
    {
      "type": "Feature",
      "properties": {
        "CityName": "彰化縣",
        "RegionName": "竹塘鄉",
        "Address": "竹塘鄉中央路二段大湖路口",
        "DeptNm": "彰化縣警察局",
        "BranchNm": "北斗分局",
        "direct": "南向",
        "limit": "70"
      },
      "geometry": {
        "type": "Point",
        "coordinates": [
          120.426277,
          23.862357
        ]
      }
    },
    {
      "type": "Feature",
      "properties": {
        "CityName": "彰化縣",
        "RegionName": "溪州鄉",
        "Address": "台1線219.7公里(溪洲外環道)",
        "DeptNm": "彰化縣警察局",
        "BranchNm": "北斗分局",
        "direct": "北向",
        "limit": "70"
      },
      "geometry": {
        "type": "Point",
        "coordinates": [
          120.47028,
          23.83444
        ]
      }
    },
    {
      "type": "Feature",
      "properties": {
        "CityName": "彰化縣",
        "RegionName": "溪州鄉",
        "Address": "台1線218.4公里處(溪州鄉中山路4段287號)",
        "DeptNm": "彰化縣警察局",
        "BranchNm": "北斗分局",
        "direct": "南北雙向",
        "limit": "70"
      },
      "geometry": {
        "type": "Point",
        "coordinates": [
          120.483112,
          23.848319
        ]
      }
    },
    {
      "type": "Feature",
      "properties": {
        "CityName": "南投縣",
        "RegionName": "南投市",
        "Address": "華陽路850號前",
        "DeptNm": "南投縣政府警察局",
        "BranchNm": "南投分局",
        "direct": "南北雙向",
        "limit": "60"
      },
      "geometry": {
        "type": "Point",
        "coordinates": [
          120.678246,
          23.930109
        ]
      }
    },
    {
      "type": "Feature",
      "properties": {
        "CityName": "南投縣",
        "RegionName": "南投市",
        "Address": "東閔路1.35公里",
        "DeptNm": "南投縣政府警察局",
        "BranchNm": "中興分局",
        "direct": "北向南",
        "limit": "60"
      },
      "geometry": {
        "type": "Point",
        "coordinates": [
          120.686228,
          23.93615
        ]
      }
    },
    {
      "type": "Feature",
      "properties": {
        "CityName": "南投縣",
        "RegionName": "南投市",
        "Address": "台3線215.5公里",
        "DeptNm": "南投縣政府警察局",
        "BranchNm": "南投分局",
        "direct": "南北雙向",
        "limit": "60"
      },
      "geometry": {
        "type": "Point",
        "coordinates": [
          120.689876,
          23.888296
        ]
      }
    },
    {
      "type": "Feature",
      "properties": {
        "CityName": "南投縣",
        "RegionName": "埔里鎮",
        "Address": "台21線50.8公里",
        "DeptNm": "南投縣政府警察局",
        "BranchNm": "埔里分局",
        "direct": "北向南",
        "limit": "60"
      },
      "geometry": {
        "type": "Point",
        "coordinates": [
          120.93184,
          23.94433
        ]
      }
    },
    {
      "type": "Feature",
      "properties": {
        "CityName": "南投縣",
        "RegionName": "埔里鎮",
        "Address": "台21線49.9公里",
        "DeptNm": "南投縣政府警察局",
        "BranchNm": "埔里分局",
        "direct": "南向北",
        "limit": "60"
      },
      "geometry": {
        "type": "Point",
        "coordinates": [
          120.937636,
          23.948852
        ]
      }
    },
    {
      "type": "Feature",
      "properties": {
        "CityName": "南投縣",
        "RegionName": "草屯鎮",
        "Address": "台14乙線5.9公里",
        "DeptNm": "南投縣政府警察局",
        "BranchNm": "草屯分局",
        "direct": "南北雙向",
        "limit": "70"
      },
      "geometry": {
        "type": "Point",
        "coordinates": [
          120.655079,
          23.963616
        ]
      }
    },
    {
      "type": "Feature",
      "properties": {
        "CityName": "南投縣",
        "RegionName": "草屯鎮",
        "Address": "台63甲線0.3公里闖紅燈",
        "DeptNm": "南投縣政府警察局",
        "BranchNm": "草屯分局",
        "direct": "南向北",
        "limit": "60"
      },
      "geometry": {
        "type": "Point",
        "coordinates": [
          120.677848,
          24.00289
        ]
      }
    },
    {
      "type": "Feature",
      "properties": {
        "CityName": "南投縣",
        "RegionName": "草屯鎮",
        "Address": "台63甲線1.2公里",
        "DeptNm": "南投縣政府警察局",
        "BranchNm": "草屯分局",
        "direct": "南北雙向",
        "limit": "60"
      },
      "geometry": {
        "type": "Point",
        "coordinates": [
          120.679626,
          23.996204
        ]
      }
    },
    {
      "type": "Feature",
      "properties": {
        "CityName": "南投縣",
        "RegionName": "草屯鎮",
        "Address": "台14線富功國小前",
        "DeptNm": "南投縣政府警察局",
        "BranchNm": "草屯分局",
        "direct": "東向西",
        "limit": "50"
      },
      "geometry": {
        "type": "Point",
        "coordinates": [
          120.698436,
          23.978879
        ]
      }
    },
    {
      "type": "Feature",
      "properties": {
        "CityName": "南投縣",
        "RegionName": "草屯鎮",
        "Address": "東草屯交流道永安路1.8公里",
        "DeptNm": "南投縣政府警察局",
        "BranchNm": "草屯分局",
        "direct": "南北雙向",
        "limit": "50"
      },
      "geometry": {
        "type": "Point",
        "coordinates": [
          120.722468,
          23.996404
        ]
      }
    },
    {
      "type": "Feature",
      "properties": {
        "CityName": "南投縣",
        "RegionName": "竹山鎮",
        "Address": "大明路與前山路口闖紅燈",
        "DeptNm": "南投縣政府警察局",
        "BranchNm": "竹山分局",
        "direct": "南向北",
        "limit": "60"
      },
      "geometry": {
        "type": "Point",
        "coordinates": [
          120.679295,
          23.757366
        ]
      }
    },
    {
      "type": "Feature",
      "properties": {
        "CityName": "南投縣",
        "RegionName": "竹山鎮",
        "Address": "社寮產業運輸道路2.15公里處",
        "DeptNm": "南投縣政府警察局",
        "BranchNm": "竹山分局",
        "direct": "南北雙向",
        "limit": "40"
      },
      "geometry": {
        "type": "Point",
        "coordinates": [
          120.705372,
          23.808374
        ]
      }
    },
    {
      "type": "Feature",
      "properties": {
        "CityName": "南投縣",
        "RegionName": "竹山鎮",
        "Address": "台3線227.7公里",
        "DeptNm": "南投縣政府警察局",
        "BranchNm": "竹山分局",
        "direct": "南北雙向",
        "limit": "60"
      },
      "geometry": {
        "type": "Point",
        "coordinates": [
          120.709379,
          23.789067
        ]
      }
    },
    {
      "type": "Feature",
      "properties": {
        "CityName": "南投縣",
        "RegionName": "竹山鎮",
        "Address": "社寮產業運輸道路4.5公里處",
        "DeptNm": "南投縣政府警察局",
        "BranchNm": "竹山分局",
        "direct": "南北雙向",
        "limit": "40"
      },
      "geometry": {
        "type": "Point",
        "coordinates": [
          120.721655,
          23.82349
        ]
      }
    },
    {
      "type": "Feature",
      "properties": {
        "CityName": "南投縣",
        "RegionName": "集集鎮",
        "Address": "台16線2.37公里",
        "DeptNm": "南投縣政府警察局",
        "BranchNm": "集集分局",
        "direct": "東西雙向",
        "limit": "70"
      },
      "geometry": {
        "type": "Point",
        "coordinates": [
          120.730961,
          23.834897
        ]
      }
    },
    {
      "type": "Feature",
      "properties": {
        "CityName": "南投縣",
        "RegionName": "集集鎮",
        "Address": "台16線4.8公里闖紅燈及測速",
        "DeptNm": "南投縣政府警察局",
        "BranchNm": "集集分局",
        "direct": "東向西",
        "limit": "70"
      },
      "geometry": {
        "type": "Point",
        "coordinates": [
          120.752475,
          23.828298
        ]
      }
    },
    {
      "type": "Feature",
      "properties": {
        "CityName": "雲林縣",
        "RegionName": "斗六市",
        "Address": "台1丁線公路與久安路口",
        "DeptNm": "雲林縣警察局",
        "BranchNm": "斗六分局",
        "direct": "東西雙向",
        "limit": "70"
      },
      "geometry": {
        "type": "Point",
        "coordinates": [
          120.508235,
          23.691449
        ]
      }
    },
    {
      "type": "Feature",
      "properties": {
        "CityName": "雲林縣",
        "RegionName": "斗六市",
        "Address": "大學路與雲林科技大學前路口",
        "DeptNm": "雲林縣警察局",
        "BranchNm": "斗六分局",
        "direct": "西向東",
        "limit": "60"
      },
      "geometry": {
        "type": "Point",
        "coordinates": [
          120.53308,
          23.695943
        ]
      }
    },
    {
      "type": "Feature",
      "properties": {
        "CityName": "雲林縣",
        "RegionName": "斗六市",
        "Address": "台3線公路252k+65m處",
        "DeptNm": "雲林縣警察局",
        "BranchNm": "斗六分局",
        "direct": "南向北",
        "limit": "60"
      },
      "geometry": {
        "type": "Point",
        "coordinates": [
          120.546494,
          23.699762
        ]
      }
    },
    {
      "type": "Feature",
      "properties": {
        "CityName": "雲林縣",
        "RegionName": "斗六市",
        "Address": "154乙縣道13k+200m處(環科大前)",
        "DeptNm": "雲林縣警察局",
        "BranchNm": "斗六分局",
        "direct": "南向北",
        "limit": "60"
      },
      "geometry": {
        "type": "Point",
        "coordinates": [
          120.552562,
          23.680203
        ]
      }
    },
    {
      "type": "Feature",
      "properties": {
        "CityName": "雲林縣",
        "RegionName": "斗六市",
        "Address": "斗六市台3線公路與成功路口",
        "DeptNm": "雲林縣警察局",
        "BranchNm": "斗六分局",
        "direct": "南向北",
        "limit": "70"
      },
      "geometry": {
        "type": "Point",
        "coordinates": [
          120.55346,
          23.702804
        ]
      }
    },
    {
      "type": "Feature",
      "properties": {
        "CityName": "雲林縣",
        "RegionName": "斗六市",
        "Address": "台3線公路248k+970m處",
        "DeptNm": "雲林縣警察局",
        "BranchNm": "斗六分局",
        "direct": "南向北",
        "limit": "60"
      },
      "geometry": {
        "type": "Point",
        "coordinates": [
          120.597945,
          23.736148
        ]
      }
    },
    {
      "type": "Feature",
      "properties": {
        "CityName": "雲林縣",
        "RegionName": "斗南鎮",
        "Address": "台78線快速公路29k+400m處(西向東)",
        "DeptNm": "雲林縣警察局",
        "BranchNm": "斗南分局",
        "direct": "西向東",
        "limit": "100"
      },
      "geometry": {
        "type": "Point",
        "coordinates": [
          120.451889,
          23.673025
        ]
      }
    },
    {
      "type": "Feature",
      "properties": {
        "CityName": "雲林縣",
        "RegionName": "斗南鎮",
        "Address": "台78線快速公路29k+400m處(東向西)",
        "DeptNm": "雲林縣警察局",
        "BranchNm": "斗南分局",
        "direct": "東向西",
        "limit": "100"
      },
      "geometry": {
        "type": "Point",
        "coordinates": [
          120.451929,
          23.673211
        ]
      }
    },
    {
      "type": "Feature",
      "properties": {
        "CityName": "雲林縣",
        "RegionName": "斗南鎮",
        "Address": "台1線公路與文昌路口(南向北)",
        "DeptNm": "雲林縣警察局",
        "BranchNm": "斗南分局",
        "direct": "南向北",
        "limit": "60"
      },
      "geometry": {
        "type": "Point",
        "coordinates": [
          120.480838,
          23.679547
        ]
      }
    },
    {
      "type": "Feature",
      "properties": {
        "CityName": "雲林縣",
        "RegionName": "斗南鎮",
        "Address": "台1線公路與文昌路口(北向南)",
        "DeptNm": "雲林縣警察局",
        "BranchNm": "斗南分局",
        "direct": "北向南",
        "limit": "60"
      },
      "geometry": {
        "type": "Point",
        "coordinates": [
          120.480858,
          23.68034
        ]
      }
    },
    {
      "type": "Feature",
      "properties": {
        "CityName": "雲林縣",
        "RegionName": "斗南鎮",
        "Address": "台1丁線公路12k+800m處(新光陸橋)",
        "DeptNm": "雲林縣警察局",
        "BranchNm": "斗南分局",
        "direct": "東西雙向",
        "limit": "60"
      },
      "geometry": {
        "type": "Point",
        "coordinates": [
          120.492336,
          23.683597
        ]
      }
    },
    {
      "type": "Feature",
      "properties": {
        "CityName": "雲林縣",
        "RegionName": "虎尾鎮",
        "Address": "158縣道與博愛路口",
        "DeptNm": "雲林縣警察局",
        "BranchNm": "虎尾分局",
        "direct": "西向東",
        "limit": "60"
      },
      "geometry": {
        "type": "Point",
        "coordinates": [
          120.436048,
          23.719143
        ]
      }
    },
    {
      "type": "Feature",
      "properties": {
        "CityName": "雲林縣",
        "RegionName": "虎尾鎮",
        "Address": "158縣道與林森路一段路口",
        "DeptNm": "雲林縣警察局",
        "BranchNm": "虎尾分局",
        "direct": "東向西",
        "limit": "60"
      },
      "geometry": {
        "type": "Point",
        "coordinates": [
          120.441329,
          23.717179
        ]
      }
    },
    {
      "type": "Feature",
      "properties": {
        "CityName": "雲林縣",
        "RegionName": "虎尾鎮",
        "Address": "145乙縣道與雲71線路口前(東向西)",
        "DeptNm": "雲林縣警察局",
        "BranchNm": "虎尾分局",
        "direct": "東向西",
        "limit": "60"
      },
      "geometry": {
        "type": "Point",
        "coordinates": [
          120.458277,
          23.735708
        ]
      }
    },
    {
      "type": "Feature",
      "properties": {
        "CityName": "雲林縣",
        "RegionName": "虎尾鎮",
        "Address": "台1線公路與雲74線路口(惠來派出所前)",
        "DeptNm": "雲林縣警察局",
        "BranchNm": "虎尾分局",
        "direct": "南北雙向",
        "limit": "70"
      },
      "geometry": {
        "type": "Point",
        "coordinates": [
          120.488912,
          23.728313
        ]
      }
    },
    {
      "type": "Feature",
      "properties": {
        "CityName": "雲林縣",
        "RegionName": "西螺鎮",
        "Address": "154甲縣道1k處(高鐵橋下)",
        "DeptNm": "雲林縣警察局",
        "BranchNm": "西螺分局",
        "direct": "東向西",
        "limit": "60"
      },
      "geometry": {
        "type": "Point",
        "coordinates": [
          120.430581,
          23.788077
        ]
      }
    },
    {
      "type": "Feature",
      "properties": {
        "CityName": "雲林縣",
        "RegionName": "西螺鎮",
        "Address": "145縣道與福來路20巷路口(12.6k處-北向)",
        "DeptNm": "雲林縣警察局",
        "BranchNm": "西螺分局",
        "direct": "南向北",
        "limit": "60"
      },
      "geometry": {
        "type": "Point",
        "coordinates": [
          120.445057,
          23.778845
        ]
      }
    },
    {
      "type": "Feature",
      "properties": {
        "CityName": "雲林縣",
        "RegionName": "西螺鎮",
        "Address": "台1線公路與振興路口(北向南)",
        "DeptNm": "雲林縣警察局",
        "BranchNm": "西螺分局",
        "direct": "北向南",
        "limit": "50"
      },
      "geometry": {
        "type": "Point",
        "coordinates": [
          120.470463,
          23.790655
        ]
      }
    },
    {
      "type": "Feature",
      "properties": {
        "CityName": "雲林縣",
        "RegionName": "西螺鎮",
        "Address": "台1線公路與振興路口(南向北)",
        "DeptNm": "雲林縣警察局",
        "BranchNm": "西螺分局",
        "direct": "南向北",
        "limit": "50"
      },
      "geometry": {
        "type": "Point",
        "coordinates": [
          120.470754,
          23.790069
        ]
      }
    },
    {
      "type": "Feature",
      "properties": {
        "CityName": "雲林縣",
        "RegionName": "土庫鎮",
        "Address": "158縣道18k處",
        "DeptNm": "雲林縣警察局",
        "BranchNm": "虎尾分局",
        "direct": "東向西",
        "limit": "70"
      },
      "geometry": {
        "type": "Point",
        "coordinates": [
          120.353135,
          23.701317
        ]
      }
    },
    {
      "type": "Feature",
      "properties": {
        "CityName": "雲林縣",
        "RegionName": "土庫鎮",
        "Address": "145縣道29k處(土庫外環道)",
        "DeptNm": "雲林縣警察局",
        "BranchNm": "虎尾分局",
        "direct": "北向南",
        "limit": "60"
      },
      "geometry": {
        "type": "Point",
        "coordinates": [
          120.388552,
          23.670492
        ]
      }
    },
    {
      "type": "Feature",
      "properties": {
        "CityName": "雲林縣",
        "RegionName": "北港鎮",
        "Address": "164縣道14k+800m處(扶朝段)",
        "DeptNm": "雲林縣警察局",
        "BranchNm": "北港分局",
        "direct": "東向西",
        "limit": "60"
      },
      "geometry": {
        "type": "Point",
        "coordinates": [
          120.283415,
          23.567299
        ]
      }
    },
    {
      "type": "Feature",
      "properties": {
        "CityName": "雲林縣",
        "RegionName": "北港鎮",
        "Address": "台19線公路與145線道路口",
        "DeptNm": "雲林縣警察局",
        "BranchNm": "北港分局",
        "direct": "北向南",
        "limit": "60"
      },
      "geometry": {
        "type": "Point",
        "coordinates": [
          120.299399,
          23.583764
        ]
      }
    },
    {
      "type": "Feature",
      "properties": {
        "CityName": "雲林縣",
        "RegionName": "大埤鄉",
        "Address": "台1線公路247k+500m處(豐田段)",
        "DeptNm": "雲林縣警察局",
        "BranchNm": "斗南分局",
        "direct": "南向北",
        "limit": "70"
      },
      "geometry": {
        "type": "Point",
        "coordinates": [
          120.468266,
          23.633721
        ]
      }
    },
    {
      "type": "Feature",
      "properties": {
        "CityName": "雲林縣",
        "RegionName": "大埤鄉",
        "Address": "台1線公路246k+400m處(豐田段)",
        "DeptNm": "雲林縣警察局",
        "BranchNm": "斗南分局",
        "direct": "北向南",
        "limit": "70"
      },
      "geometry": {
        "type": "Point",
        "coordinates": [
          120.469456,
          23.639185
        ]
      }
    },